id;name;uic;lat;lon;country
27849;Pazardzhik;pazardzhik;42.169953;24.320879;BG
27850;Plovdiv;plovdiv;42.134464;24.741522;BG
27851;Svilengrad;svilengrad;41.774192;26.144242;BG
27852;Burgas;burgas;42.491019;27.472722;BG
27853;Gorna Orjahovica;gorna-orjahovica;43.139511;25.68183;BG
27854;Karlovo;karlovo;42.631924;24.804652;BG
27855;Dragoman;dragoman;42.922041;22.932165;BG
27856;Dimitrovgrad;dimitrovgrad;42.0571408;25.5863141;BG
27857;Ruse Razpredelitelna;ruse-razpredelitelna;43.857684;25.997998;BG
27858;Ruse;ruse;43.833381;25.955587;BG
27859;Sofia;sofia;42.712022;23.320727;BG
27860;Varna;varna;43.198411;27.912297;BG
32235;Razgrad;razgrad;43.5336719;26.5411165;BG
32243;Shumen;shumen;43.2712398;26.9361286;BG
32329;Novi Pazar;novi-pazar-gara;43.326881;27.1656;BG
32330;Sliven;sliven;42.68583;26.32917;BG
32331;Stara Zagora;stara-zagora;42.43278;25.64194;BG
33373;Montana;montana;43.25;23.14;BG
33387;Pleven;pleven;43.4170423;24.6066847;BG
34722;Vidin;vidin;43.996159;22.8679302;BG
34749;Ahtopol;ahtopol;42.099405;27.93964;BG
34750;Archar;archar;43.810743;22.91911;BG
34751;Smirnenski;smirnenski;43.764297;26.29915;BG
34752;Chernomorets;chernomorets;42.444263;27.63832;BG
34753;Dobri Dol;dobri-dol;42.129968;25.312524;BG
34754;Dabova Mahala;dabova-mahala;43.683113;23.017539;BG
34755;Lozenets;lozenets;42.208265;27.806617;BG
34756;Studeno Buche;studeno-buche;43.457744;23.19224;BG
34757;Botevo;botevo;43.429192;27.720252;BG
34758;Doktor Yosifovo;doktor-yosifovo;43.506553;23.147614;BG
34759;Kiten;kiten;42.234706;27.770956;BG
34760;Primorsko;primorsko;42.266739;27.745724;BG
34761;Topolovets;topolovets;43.987205;22.62133;BG
34762;Drenovets;drenovets;43.693383;22.981765;BG
34763;Slavotin;slavotin;43.558484;23.068326;BG
34764;Sozopol;sozopol;42.417263;27.696175;BG
34765;Vratsa;vratsa;43.207304;23.559833;BG
34766;Krapchene;krapchene;43.385055;23.303366;BG
34767;Tsarevo;tsarevo;42.1650929;27.8431995;BG
34787;Sunny Beach;sunny-beach;42.6883305;27.7139182;BG
35106;Blagoevgrad;blagoevgrad;42.015326;23.0829862000001;BG
35264;Sandanski;sandanski;41.538995;23.2716522;BG
35266;Nesebar;nesebar;42.6626267;27.7191464;BG
35268;Obzor;obzor;42.8167938;27.8787821999999;BG
35362;Ravda;ravda;42.6443689;27.6780102;BG
35364;Pomorie;pomorie;42.5697568;27.6112949;BG
35375;Kardzhali;kardzhali;41.6329602;25.3779918;BG
35376;Haskovo;haskovo;41.932977;25.5614195000001;BG
35666;Silistra;silistra;44.118763;27.259751;BG
35670;Veliko Tarnovo;veliko-tarnovo;43.076309;25.63286;BG
35835;Sofia Airport;sofia-airport;42.6885203;23.39719025;BG
35837;Plovdiv Airport;plovdiv-airport;42.071428;24.8622985;BG
35838;Burgas Airport;burgas-airport;42.5650814;27.4991571;BG
35839;Varna Airport;varna-airport;43.2375259;27.8110737;BG
35840;Bansko;bansko;41.8358592;23.4668515;BG
35929;Borovets;borovets;42.2671649;23.5864626;BG
37774;Ablanitsa;ablanitsa;43.04085;24.718921;BG
37775;Aytos;aytos;42.704711;27.248675;BG
37776;Albena;albena;43.367572;28.064391;BG
37779;Antonovo;antonovo;43.155483;26.172208;BG
37780;Baltchik;baltchik;43.409597;28.165982;BG
37781;Balgarski Izvor;balgarski-izvor;43.05622;24.244557;BG
37782;Botevgrad;botevgrad;42.907451;23.785485;BG
37784;Byala;byala;43.4693;25.721902;BG
37785;Gabrovo;gabrovo;42.879883;25.315106;BG
37786;Dragomirovo;dragomirovo;42.394946;22.847303;BG
37787;Dulovo;dulovo;43.823039;27.14017;BG
37788;Dupnitsa;dupnitsa;42.260404;23.103719;BG
37789;Zlatna Panega;zlatna-panega;43.092431;24.150815;BG
37790;Isperih;isperih;43.713855;26.83209;BG
37791;Ihtiman;ihtiman;42.435067;23.817633;BG
37792;Kavarna;kavarna;43.435841;28.339233;BG
37793;Kazanlak;kazanlak;42.614599;25.394086;BG
37795;Kalofer;kalofer;42.611341;24.974868;BG
37796;Karnobat;karnobat;42.6513;26.980919;BG
37797;Katuntsi;katuntsi;41.4444;23.433777;BG
37799;Konyavo;konyavo;42.324163;22.781934;BG
37801;Kresna;kresna;41.720971;23.159694;BG
37802;Kubrat;kubrat;43.794234;26.502048;BG
37803;Kulata;kulata;41.387521;23.363496;BG
37804;Kyustendil;kyustendil;42.289203;22.683591;BG
37805;Lovech;lovech;43.138137;24.706753;BG
37806;Lukovit;lukovit;43.20445;24.164337;BG
37808;Nova Zagora;nova-zagora;42.500083;26.008941;BG
37809;Obnova;obnova;43.439952;24.991813;BG
37810;Omurtag;omurtag;43.108786;26.415961;BG
37811;Pavel Banya;pavel-banya;42.633132;25.192459;BG
37812;Pernik;pernik;42.600658;23.031752;BG
37813;Petrevene;petrevene;43.157369;24.148949;BG
37814;Petrich;petrich;41.404311;23.204439;BG
37816;Pravets;pravets;42.894911;23.918625;BG
37817;Radomir;radomir;42.548145;22.963899;BG
37818;Razlog;razlog;41.883013;23.467985;BG
37819;Rozino;rozino;42.712525;24.546792;BG
37820;Sveti Vlas;sveti-vlas;42.713683;27.758541;BG
37821;Svishtov;svishtov;43.622459;25.339317;BG
37822;Sevlievo;sevlievo;43.035019;25.097419;BG
37824;Simitli;simitli;41.891373;23.117333;BG
37825;Sopot;sopot-gara;42.653697;24.756533;BG
37826;Strumyani;strumyani;41.63665;23.200821;BG
37827;Troyan;troyan;42.88219;24.712523;BG
37828;Tryavna;tryavna;42.871778;25.496147;BG
37829;Targovishte;targovishte;43.253285;26.574417;BG
37830;Tsarvendol;tsarvendol;42.346242;22.796257;BG
37831;Shabla;shabla;43.535494;28.531122;BG
37832;Yablanitsa;yablanitsa;43.064164;24.13892;BG
37837;Dobrinishte;dobrinishte;41.824528;23.563844;BG
38388;Lom;lom;43.820803;23.240879;BG
38389;Yambol;yambol;42.479958;26.505863;BG
38390;Debelt;debelt;42.386742;27.275352;BG
38391;Zornitsa;zornitsa;42.384847;26.930379;BG
38392;Irechekovo;irechekovo;42.487838;26.725824;BG
38393;Kalchevo;kalchevo;42.429931;26.603716;BG
38394;Nedyalsko;nedyalsko;42.462896;26.824136;BG
38395;Novoseltsi;novoseltsi;42.40354;27.319822;BG
38396;Sredets;sredets;42.34829;27.178028;BG
38397;Tamarino;tamarino;42.378279;26.74464;BG
38398;Chargan;chargan;42.480885;26.621361;BG
38400;Boyanovo;boyanovo;42.253619;26.598732;BG
38402;Zimnitsa;zimnitsa;42.580284;26.606873;BG
38405;Zelena morava;zelena-morava;43.040773;26.399757;BG
38406;Prolaz;prolaz;43.172826;26.501571;BG
38407;Gurkovo;gurkovo;42.656933;25.79528;BG
38408;Elhovo;elhovo;42.18306;26.57141;BG
38409;Knjazhevo;knjazhevo;42.111945;26.50239;BG
38410;Kukorevo;kukorevo;42.446247;26.53364;BG
38411;Okop;okop;42.411055;26.54757;BG
38412;Levka;levka;41.867438;26.26795;BG
38413;Pastrogor;pastrogor;41.842064;26.19849;BG
38414;Studena;studena;41.916349;26.40327;BG
38415;Straldzha;straldzha;42.597358;26.69107;BG
38416;Golyam Manastir;golyam-manastir;42.208082;26.3503;BG
38417;Krumovo;krumovo;42.270624;26.40393;BG
38418;Roza;roza;42.826125085;10.9236984085;BG
38419;Topolovgrad;topolovgrad;42.090081;26.34178;BG
38420;Radovets;radovets;42.931164;26.49201;BG
38421;Ustrem;ustrem;42.020704;26.46213;BG
38422;General Inzovo;general-inzovo;42.311601;26.43302;BG
38426;Ekzarh Antimovo;ekzarh-antimovo;42.52733;26.980667;BG
38427;Zhitosvyat;zhitosvyat;42.462446;26.977995;BG
38438;Bolyarovo;bolyarovo;42.149491;26.813377;BG
38439;Stefan Karadzhovo;stefan-karadzhovo;42.214164;26.832579;BG
38440;Manastirsko;manastirsko;43.422088;26.546373;BG
38441;Tsar Kaloyan;tsar-kaloyan;43.606954;26.239042;BG
38552;Srem;srem-bg;42.051989;26.48024;BG
38573;Tutrakan;tutrakan;44.046089;26.629482;BG
38603;Popovo;popovo;43.3462463;26.22484;BG
38680;Veselinovo;veselinovo;42.532553;26.544457;BG
67606;Ostrets;ostrets;42.82212;24.945589;BG
67607;Tarnava;tarnava;42.473369;26.681676;BG
67810;Dobrich;dobrich;43.570978;27.83252;BG
67811;Novachene;novachene;42.977969;23.72999;BG
67812;Pirdop;pirdop;42.702531;24.17244;BG
67813;Valchedram;valchedram;43.69374;23.4453;BG
67814;Yakimovo;yakimovo;43.63527;23.35071;BG
67815;Novo Konomladi;novo-konomladi;41.454417;23.33146;BG
67816;Lyulin;lyulin;42.436994;26.79985;BG
67817;Kapatovo;kapatovo;41.46358;23.35917;BG
67819;Dolno Tserovene;dolno-tserovene;43.59027;23.24511;BG
67820;Asparuhovo;asparuhovo;43.702983;23.21469;BG
67821;Mokresh;mokresh;43.749713;23.39634;BG
67822;Parvenets;parvenets;42.432561;26.84886;BG
67823;Rasovo;rasovo;43.700904;23.23654;BG
67824;Bogorovo;bogorovo;42.450991;26.85233;BG
67825;Aheloy;aheloy;42.64639936700256;27.65052462530588;BG
67991;Venets;venets;42.63977;26.80397;BG
67992;Chirpan;chirpan;42.198454;25.32917;BG
67993;Draganovtsi;draganovtsi;42.932228;25.18973;BG
67994;Oresh;oresh;43.584306;25.21614;BG
67996;Lesidren;lesidren;42.978878;24.40263;BG
67997;Gorno Aleksandrovo;gorno-aleksandrovo;42.647122;26.66919;BG
67998;Gradevo;gradevo;41.91699108;23.19462112;BG
67999;Predel;predel;41.88135251;23.34833446;BG
68006;Yabalkovo;yabalkovo;42.30649155315648;22.73743202450142;BG
68007;Harsovo;harsovo;41.45843628197768;23.38014290584832;BG
68008;Hadzhidimovo;hadzhidimovo;41.51725257005052;23.85141889247403;BG
68009;Borima;borima;42.97432705166873;24.58202392092465;BG
68010;Varvara;varvara;42.12002174079313;27.90078199548359;BG
68011;Staro selo;staro-selo;42.98540177813177;24.521432737077;BG
68012;Velchevo;velchevo;43.00191573998072;25.70562566530113;BG
68013;Vranya;vranya;41.44904557825317;23.40186902917775;BG
68014;Gotse Delchev;gotse-delchev;41.56657241308407;23.73384116358738;BG
68015;Skandaloto;skandaloto;42.88027397879378;24.86533175452984;BG
68016;Svetlina;svetlina;42.37491857804354;27.10449056789455;BG
68017;Ognyanovo;ognyanovo;41.61211108614844;23.78792507699527;BG
68018;Mesta;mesta;41.76224157188801;23.67282730182991;BG
68019;Totleben;totleben;43.43953215616476;24.91100720391408;BG