id;name;uic;lat;lon;country
28299;Ski;ski;59.719162;10.83486;NO
28300;As;as;59.663042;10.794993;NO
28301;Vestby;vestby;59.603857;10.748635;NO
28302;Moss;moss;59.431848;10.657026;NO
28303;Rygge;rygge;59.37812;10.74806;NO
28304;Rade;rade;59.347763;10.865477;NO
28305;Fredrikstad;fredrikstad;59.209078;10.950704;NO
28306;Sarpsborg;sarpsborg;59.286178;11.118622;NO
28307;Halden;halden;59.120804;11.383768;NO
28308;Askim;askim;59.581689;11.165024;NO
28309;Mysen;mysen;59.554533;11.324214;NO
28310;Arnes;arnes;60.123658;11.464572;NO
28311;Skarnes;skarnes;60.253867;11.680709;NO
28312;Kongsvinger;kongsvinger;60.187814;12.003547;NO
28313;Grefsen;grefsen;59.941123;10.780358;NO
28314;Hakadal;hakadal;60.117429;10.829439;NO
28315;Stryken;stryken;60.165719;10.720346;NO
28316;Harestua;harestua;60.192408;10.723807;NO
28317;Grua;grua;60.259368;10.665;NO
28318;Roa;roa;60.283468;10.621438;NO
28319;Lunner;lunner;60.304638;10.584807;NO
28320;Gran;gran;60.359337;10.56975;NO
28321;Jaren;jaren;60.393038;10.556302;NO
28322;Bleiken;bleiken;60.468358;10.500542;NO
28323;Eina;eina;60.630128;10.597419;NO
28324;Raufoss;raufoss;60.72189;10.613294;NO
28325;Gjøvik;gjovik;60.796761;10.695527;NO
28326;Lillestrøm;lillestrom;59.953411;11.045243;NO
28327;Jessheim;jessheim;60.141987;11.176989;NO
28328;Eidsvoll;eidsvoll;60.33085;11.248328;NO
28329;Tangen;tangen;60.615692;11.270135;NO
28330;Stange;stange;60.717773;11.195237;NO
28331;Hamar;hamar;60.791404;11.076912;NO
28332;Brumunddal;brumunddal;60.880208;10.938092;NO
28333;Moelv;moelv;60.93017;10.698053;NO
28334;Lillehammer;lillehammer;61.115087;10.461088;NO
28335;Ringebu;ringebu;61.529193;10.139238;NO
28336;Vinstra;vinstra;61.595246;9.747381;NO
28337;Kvam;kvam;61.664706;9.700987;NO
28338;Otta;otta;61.772406;9.537213;NO
28339;Dovre;dovre;61.984182;9.256992;NO
28340;Dombas;dombas;62.068789;9.125561;NO
28341;Lesja;lesja;62.119138;8.852837;NO
28342;Bjorli;bjorli;62.258246;8.201236;NO
28343;Åndalsnes;andalsnes;62.567205;7.691089;NO
28344;Hjerkinn;hjerkinn;62.215259;9.564486;NO
28345;Kongsvoll;kongsvoll;62.374467;9.623491;NO
28346;Oppdal;oppdal;62.613158;9.712161;NO
28347;Berkåk;berkak;62.841583;10.05767;NO
28348;Storen;storen;63.05175;10.285304;NO
28349;Heimdal;heimdal;63.351019;10.357622;NO
28350;Leangen;leangen;63.436956;10.464064;NO
28351;Hommelvik;hommelvik;63.411786;10.794013;NO
28352;Hell;hell;63.446332;10.899267;NO
28353;Hegra;hegra;63.444363;10.984791;NO
28354;Gudå;guda;63.456786;11.425289;NO
28355;Meraker;meraker;63.444948;11.643718;NO
28356;Kopperå;koppera;63.434026;11.776489;NO
28357;Stjordal;stjordal;63.470288;10.913587;NO
28358;Skatval;skatval;63.50878;10.821178;NO
28359;Asen;asen;63.609387;11.052641;NO
28360;Ronglan;ronglan;63.667152;11.113759;NO
28361;Skogn;skogn;63.705725;11.194482;NO
28362;Levanger;levanger;63.74472;11.300708;NO
28363;Verdal;verdal;63.790879;11.484573;NO
28364;Rora;rora;63.85695;11.401585;NO
28365;Sparbu;sparbu;63.919218;11.428354;NO
28366;Steinkjer;steinkjer;64.011987;11.494866;NO
28367;Jorstad;jorstad;64.184032;12.209041;NO
28368;Snasa;snasa;64.243999;12.397347;NO
28369;Grong;grong;64.445096;12.379153;NO
28370;Harran;harran;64.595045;12.435362;NO
28371;Lassemoen;lassemoen;64.682394;12.660973;NO
28372;Namsskogan;namsskogan;64.924428;13.151407;NO
28373;Majavatn;majavatn;65.143738;13.401199;NO
28374;Svenningdal;svenningdal;65.434039;13.394497;NO
28375;Trofors;trofors;65.535083;13.399842;NO
28376;Mosjøen;mosjoen;65.844654;13.199922;NO
28377;Bjerka;bjerka;66.149226;13.831719;NO
28378;Mo i Rana;mo-i-rana;66.308992;14.132265;NO
28379;Dunderland;dunderland;66.44587;14.837253;NO
28380;Lønsdal;lonsdal;66.74282;15.463316;NO
28381;Røkland;rokland;66.986706;15.320135;NO
28382;Rognan;rognan;67.093238;15.396544;NO
28383;Fauske;fauske;67.264257;15.399663;NO
28384;Bodø;bodo;67.286533;14.390732;NO
28385;Ilseng;ilseng;60.777012;11.222439;NO
28386;Loten;loten;60.818704;11.342112;NO
28387;Elverum;elverum;60.882905;11.546742;NO
28388;Rudstad;rudstad;61.008296;11.40332;NO
28389;Rena;rena;61.133398;11.369223;NO
28390;Steinvik;steinvik;61.252047;11.325095;NO
28391;Opphus;opphus;61.332617;11.260975;NO
28392;Stai;stai;61.493767;11.058583;NO
28393;Koppang;koppang;61.57342;11.044668;NO
28394;Atna;atna;61.73235;10.834051;NO
28395;Hanestad;hanestad;61.838791;10.88172;NO
28396;Bellingmo;bellingmo;62.032464;10.781167;NO
28397;Alvdal;alvdal;62.108962;10.633519;NO
28398;Auma;auma;62.221138;10.659031;NO
28399;Tynset;tynset;62.274912;10.77678;NO
28400;Tolga;tolga;62.408473;10.998077;NO
28401;Os;os;62.497422;11.22714;NO
28402;Røros;roros;62.574459;11.378986;NO
28403;Glåmos;glamos;62.674203;11.417082;NO
28404;Reitan;reitan;62.808044;11.378788;NO
28405;Haltdalen;haltdalen;62.928652;11.143486;NO
28406;Singsås;singsas;62.956141;10.72965;NO
28407;Sandvika;sandvika;59.892887;10.525451;NO
28408;Asker;asker;59.833037;10.434094;NO
28409;Drammen;drammen;59.740322;10.20415;NO
28410;Mjøndalen;mjondalen;59.750777;10.011843;NO
28411;Hokksund;hokksund;59.767577;9.909591;NO
28412;Kongsberg;kongsberg;59.671986;9.650639;NO
28413;Nordagutu;nordagutu;59.418032;9.323719;NO
28414;Bo;bo;59.409546;9.068048;NO
28415;Lunde;lunde;59.299159;9.101002;NO
28416;Drangedal;drangedal;59.096101;9.064048;NO
28417;Neslandsvatn;neslandsvatn;58.971259;9.156223;NO
28418;Gjerstad;gjerstad;58.870184;9.023012;NO
28419;Vegårshei;vegarshei;58.760839;8.855453;NO
28420;Nelaug;nelaug;58.655962;8.633779;NO
28421;Vennesla;vennesla;58.25365;7.968496;NO
28422;Kristiansand;kristiansand;58.145645;7.987275;NO
28423;Nodeland;nodeland;58.157564;7.834791;NO
28424;Breland;breland;58.199823;7.720933;NO
28425;Marnardal;marnardal;58.214241;7.512887;NO
28426;Audnedal;audnedal;58.318759;7.367289;NO
28427;Snartemo;snartemo;58.331811;7.211002;NO
28428;Storekvina;storekvina;58.380461;6.956715;NO
28429;Gyland;gyland;58.385207;6.8408;NO
28430;Sira;sira;58.417865;6.661033;NO
28431;Moi;moi;58.458101;6.551329;NO
28432;Egersund;egersund;58.461337;6.001459;NO
28433;Vigrestad;vigrestad;58.570313;5.688014;NO
28434;Narbo;narbo;58.666084;5.64074;NO
28435;Bryne;bryne;58.734852;5.64954;NO
28436;Sandnes;sandnes;58.84728;5.734066;NO
28437;Stavanger;stavanger;58.966773;5.731657;NO
28438;Vikersund;vikersund;59.969682;9.997991;NO
28439;Flaten;flaten;58.639054;8.681557;NO
28440;Froland;froland;58.530383;8.654211;NO
28441;Rise;rise;58.468429;8.624143;NO
28442;Arendal;arendal;58.464825;8.769786;NO
28443;Sande;sande;59.586966;10.203502;NO
28444;Holmestrand;holmestrand;59.491986;10.312362;NO
28445;Skoppum;skoppum;59.391352;10.411045;NO
28446;Tønsberg;tonsberg;59.27149;10.409733;NO
28447;Stokke;stokke;59.221285;10.300226;NO
28448;Sandefjord;sandefjord;59.135024;10.22416;NO
28449;Larvik;larvik;59.050022;10.032015;NO
28450;Porsgrunn;porsgrunn;59.139222;9.659134;NO
28451;Skien;skien;59.219325;9.603805;NO
28452;Honefoss;honefoss;60.16909;10.245707;NO
28453;Flå;fla;60.4325;9.472796;NO
28454;Nesbyen;nesbyen;60.57782;9.111816;NO
28455;Gol;gol;60.69895;8.970182;NO
28456;Al;al;60.626038;8.561757;NO
28457;Geilo;geilo;60.534951;8.206881;NO
28458;Ustaoset;ustaoset;60.496791;8.044554;NO
28459;Haugastøl;haugastol;60.51148;7.869174;NO
28460;Finse;finse;60.601749;7.504689;NO
28461;Hallingskeid;hallingskeid;60.667892;7.252559;NO
28462;Myrdal;myrdal;60.734655;7.122953;NO
28463;Upsete;upsete;60.725225;7.011891;NO
28464;Mjølfjell;mjolfjell;60.694015;6.840386;NO
28465;Reimegrend;reimegrend;60.678149;6.731221;NO
28466;Urdland;urdland;60.679497;6.592392;NO
28467;Voss;voss;60.629238;6.410468;NO
28468;Dale;dale;60.58609;5.815912;NO
28469;Stanghelle;stanghelle;60.548731;5.733113;NO
28470;Vaksdal;vaksdal;60.478408;5.73589;NO
28471;Trengereid;trengereid;60.429363;5.624793;NO
28472;Arna;arna;60.420167;5.465908;NO
28473;Bergen;bergen;60.390062;5.334127;NO
28474;Vatnahalsen;vatnahalsen;60.743923;7.130018;NO
28475;Berekvam;berekvam;60.788518;7.09648;NO
28476;Håreina;hareina;60.839622;7.123097;NO
28477;Flam;flam;60.863255;7.114449;NO
28478;Ørneberget;orneberget;60.703966;6.940499;NO
28479;Narvik;narvik;68.429979;17.454597;NO
28480;Rombak;rombak;68.414436;17.776213;NO
28481;Katterat;katterat;68.403334;17.911537;NO
28482;Bjørnfjell;bjornfjell;68.429223;18.097901;NO
28483;Trondheim;trondheim;63.436606;10.399404;NO
28484;Klepp;klepp;58.771752;5.678189;NO
28485;Notodden;notodden;59.557086;9.257388;NO
28486;Varhaug;varhaug;58.618459;5.646439;NO
29479;Oslo;oslo;59.9138688;10.7522454;NO
35800;Oslo Airport (Gardermoen);oslo-airport-gardermoen;60.1975501;11.1004152;NO
35826;Rindal;rindal;63.0569;9.213634;NO
35980;Ostfold;ostfold;59.06799;10.9346;NO
39500;Oslo S;oslo-s;59.910925;10.753276;NO
39501;Gol stasjon;gol-stasjon;60.699168;8.97123;NO
39502;Vatnahalsen stasjon;vatnahalsen-stasjon;60.743805;7.129843;NO
39503;Kjosfossen stasjon;kjosfossen-stasjon;60.746952;7.135649;NO
39504;Håreina stasjon;hareina-stasjon;60.83974;7.122689;NO
39505;Reinunga stasjon;reinunga-stasjon;60.74388;7.139198;NO
39506;Blomheller stasjon;blomheller-stasjon;60.77169;7.101845;NO
39507;Flåm stasjon;flam-stasjon;60.863007;7.113806;NO
39508;Myrdal stasjon;myrdal-stasjon;60.73514;7.122762;NO
39509;Lunden stasjon;lunden-stasjon;60.850754;7.113838;NO
39510;Berekvam stasjon;berekvam-stasjon;60.78827;7.095725;NO
39511;Snartemo stasjon;snartemo-stasjon;58.331738;7.211468;NO
39512;Skeiane stasjon;skeiane-stasjon;58.847034;5.733579;NO
39513;Asker stasjon;asker-stasjon;59.833344;10.434492;NO
39514;Egersund stasjon;egersund-stasjon;58.461143;6.002341;NO
39515;Nelaug stasjon;nelaug-stasjon;58.6576;8.630423;NO
39516;Varhaug stasjon;varhaug-stasjon;58.61836;5.646136;NO
39517;Sandnes Sentrum stasjon;sandnes-sentrum-stasjon;58.852306;5.736575;NO
39518;Ogna stasjon;ogna-stasjon;58.519817;5.803262;NO
39519;Paradis stasjon;paradis-stasjon;58.9561;5.742198;NO
39520;Drangedal stasjon;drangedal-stasjon;59.096264;9.064246;NO
39521;Arendal stasjon;arendal-stasjon;58.464836;8.769619;NO
39522;Ganddal stasjon;ganddal-stasjon;58.823277;5.717169;NO
39523;Nordagutu stasjon;nordagutu-stasjon;59.418102;9.322557;NO
39524;Klepp stasjon;klepp-stasjon;58.771725;5.677767;NO
39525;Vigrestad stasjon;vigrestad-stasjon;58.570454;5.687402;NO
39526;Hellvik stasjon;hellvik-stasjon;58.485817;5.897164;NO
39527;Skøyen stasjon;skoyen-stasjon;59.92235;10.678831;NO
39528;Lysaker stasjon;lysaker-stasjon;59.913445;10.637247;NO
39529;Vennesla stasjon;vennesla-stasjon;58.253048;7.967451;NO
39530;Audnedal stasjon;audnedal-stasjon;58.318928;7.367484;NO
39531;Breland stasjon;breland-stasjon;58.19951;7.720393;NO
39532;Stoa stasjon;stoa-stasjon;58.465992;8.709398;NO
39533;Mariero stasjon;mariero-stasjon;58.933487;5.753836;NO
39534;Bryne stasjon;bryne-stasjon;58.73469;5.649535;NO
39535;Bråstad stasjon;brastad-stasjon;58.462776;8.689566;NO
39536;Kristiansand stasjon;kristiansand-stasjon;58.1456;7.987954;NO
39537;Gausel stasjon;gausel-stasjon;58.89961;5.740223;NO
39538;Brusand stasjon;brusand-stasjon;58.54036;5.748897;NO
39539;Nationaltheatret stasjon;nationaltheatret-stasjon;59.91539;10.728133;NO
39540;Flaten stasjon;flaten-stasjon;58.636223;8.680754;NO
39541;Neslandsvatn stasjon;neslandsvatn-stasjon;58.971348;9.156474;NO
39542;Gjerstad stasjon;gjerstad-stasjon;58.869946;9.022946;NO
39543;Marnardal stasjon;marnardal-stasjon;58.21292;7.512572;NO
39544;Sandvika stasjon;sandvika-stasjon;59.892902;10.525746;NO
39545;Sirevåg stasjon;sirevag-stasjon;58.502686;5.807028;NO
39546;Rise stasjon;rise-stasjon;58.46852;8.623777;NO
39547;Storekvina stasjon;storekvina-stasjon;58.37964;6.957863;NO
39548;Gyland stasjon;gyland-stasjon;58.384308;6.837409;NO
39549;Lunde stasjon;lunde-stasjon;59.29895;9.101231;NO
39550;Kongsberg stasjon;kongsberg-stasjon;59.67222;9.650913;NO
39551;Bø stasjon;bo-stasjon;59.409344;9.069206;NO
39552;Blakstad stasjon;blakstad-stasjon;58.507435;8.648684;NO
39553;Stavanger stasjon;stavanger-stasjon;58.96649;5.732453;NO
39554;Moi stasjon;moi-stasjon;58.45789;6.551789;NO
39555;Bøylestad stasjon;boylestad-stasjon;58.576607;8.705627;NO
39556;Drammen stasjon;drammen-stasjon;59.740105;10.205235;NO
39557;Vegårshei stasjon;vegarshei-stasjon;58.76074;8.855721;NO
39558;Øksnavadporten stasjon;oksnavadporten-stasjon;58.786537;5.701518;NO
39559;Nærbø stasjon;naerbo-stasjon;58.665825;5.640605;NO
39560;Sira stasjon;sira-stasjon;58.417816;6.660472;NO
39561;Jåttåvågen stasjon;jattavagen-stasjon;58.91387;5.729129;NO
39562;Nodeland stasjon;nodeland-stasjon;58.157127;7.834778;NO
39563;Hokksund stasjon;hokksund-stasjon;59.767204;9.910567;NO
39564;Froland stasjon;froland-stasjon;58.529392;8.654536;NO
39565;Trondheim S;trondheim-s;63.43627;10.398983;NO
39566;Vikhammer stasjon;vikhammer-stasjon;63.43875;10.623685;NO
39567;Hanestad stasjon;hanestad-stasjon;61.83797;10.878675;NO
39568;Valnesfjord stasjon;valnesfjord-stasjon;67.299446;15.19201;NO
39569;Hegra stasjon;hegra-stasjon;63.460976;11.103511;NO
39570;Dovre stasjon;dovre-stasjon;61.98473;9.256808;NO
39571;Levanger stasjon;levanger-stasjon;63.744812;11.300468;NO
39572;Vinstra stasjon;vinstra-stasjon;61.595463;9.74704;NO
39573;Røra stasjon;rora-stasjon;63.856827;11.401494;NO
39574;Steinvik stasjon;steinvik-stasjon;61.251217;11.324332;NO
39575;Atna stasjon;atna-stasjon;61.732338;10.835149;NO
39576;Røkland stasjon;rokland-stasjon;66.9817;15.3133;NO
39577;Stai stasjon;stai-stasjon;61.494286;11.058855;NO
39578;Oteråga stasjon;oteraga-stasjon;67.29918;14.870773;NO
39579;Hell stasjon;hell-stasjon;63.446007;10.896624;NO
39580;Gudå stasjon;guda-stasjon;63.443825;11.618004;NO
39581;Otta stasjon;otta-stasjon;61.77228;9.536819;NO
39582;Evenstad stasjon;evenstad-stasjon;61.423306;11.099389;NO
39583;Lillehammer stasjon;lillehammer-stasjon;61.11491;10.461479;NO
39584;Skansen stasjon;skansen-stasjon;63.431114;10.377746;NO
39585;Brumunddal stasjon;brumunddal-stasjon;60.88058;10.937622;NO
39586;Tolga stasjon;tolga-stasjon;62.408676;10.998259;NO
39587;Lilleby stasjon;lilleby-stasjon;63.439884;10.43238;NO
39589;Skatval stasjon;skatval-stasjon;63.50862;10.825774;NO
39590;Oppdal stasjon;oppdal-stasjon;62.59311;9.694018;NO
39591;Stjørdal stasjon;stjordal-stasjon;63.470154;10.913654;NO
39592;Steinkjer stasjon;steinkjer-stasjon;64.01268;11.494591;NO
39593;Verdal stasjon;verdal-stasjon;63.79101;11.484599;NO
39594;Alvdal stasjon;alvdal-stasjon;62.10873;10.633052;NO
39595;Lademoen stasjon;lademoen-stasjon;63.437225;10.416702;NO
39596;Leangen stasjon;leangen-stasjon;63.437576;10.461661;NO
39597;Namsskogan stasjon;namsskogan-stasjon;64.92586;13.152432;NO
39598;Hunderfossen stasjon;hunderfossen-stasjon;61.223648;10.438605;NO
39599;Snåsa stasjon;snasa-stasjon;64.245766;12.380184;NO
39600;Selsbakk stasjon;selsbakk-stasjon;63.3894;10.373344;NO
39601;Åsen stasjon;asen-stasjon;63.609463;11.052053;NO
39602;Berkåk stasjon;berkak-stasjon;62.823006;10.014242;NO
39603;Auma stasjon;auma-stasjon;62.220604;10.658546;NO
39604;Ilseng stasjon;ilseng-stasjon;60.776943;11.222247;NO
39605;Støren stasjon;storen-stasjon;63.05148;10.284855;NO
39606;Røros stasjon;roros-stasjon;62.574745;11.379087;NO
39607;Opphus stasjon;opphus-stasjon;61.331745;11.260506;NO
39608;Røstad stasjon;rostad-stasjon;63.752987;11.319091;NO
39609;Rotvoll stasjon;rotvoll-stasjon;63.436665;10.4807;NO
39610;Lønsdal stasjon;lonsdal-stasjon;66.74269;15.463101;NO
39611;Rognan stasjon;rognan-stasjon;67.09345;15.398428;NO
39612;Løten stasjon;loten-stasjon;60.818707;11.342051;NO
39613;Trofors stasjon;trofors-stasjon;65.53795;13.383086;NO
39614;Langlete stasjon;langlete-stasjon;62.9607;10.979059;NO
39615;Sparbu stasjon;sparbu-stasjon;63.918934;11.428811;NO
39616;Hamar stasjon;hamar-stasjon;60.791214;11.078141;NO
39617;Drevvatn stasjon;drevvatn-stasjon;66.071304;13.455527;NO
39618;Marienborg stasjon;marienborg-stasjon;63.41843;10.38282;NO
39619;Majavatn stasjon;majavatn-stasjon;65.16433;13.367963;NO
39620;Lillestrøm stasjon;lillestrom-stasjon;59.95322;11.044676;NO
39621;Fauske stasjon;fauske-stasjon;67.26406;15.398943;NO
39622;Hjerkinn stasjon;hjerkinn-stasjon;62.22005;9.541277;NO
39623;Mosjøen stasjon;mosjoen-stasjon;65.844795;13.200127;NO
39624;Bergsgrav stasjon;bergsgrav-stasjon;63.771145;11.471118;NO
39625;Ronglan stasjon;ronglan-stasjon;63.66629;11.113325;NO
39626;Os stasjon;os-stasjon;62.497288;11.227196;NO
39627;Heimdal stasjon;heimdal-stasjon;63.35093;10.357636;NO
39628;Glåmos stasjon;glamos-stasjon;62.674526;11.416541;NO
39629;Tverlandet stasjon;tverlandet-stasjon;67.30126;14.746538;NO
39630;Tynset stasjon;tynset-stasjon;62.274715;10.776389;NO
39631;Melhus skysstasjon;melhus-skysstasjon;63.28439;10.27675;NO
39632;Trondheim lufthavn stasjon;trondheim-lufthavn-stasjon;63.453903;10.913887;NO
39633;Lerkendal stasjon;lerkendal-stasjon;63.413876;10.409237;NO
39634;Hommelvik stasjon;hommelvik-stasjon;63.411537;10.793982;NO
39635;Rognes stasjon;rognes-stasjon;63.004704;10.458553;NO
39636;Bodø stasjon;bodo-stasjon;67.286354;14.390762;NO
39637;Kvam stasjon;kvam-stasjon;61.66488;9.7014;NO
39638;Meråker stasjon;meraker-stasjon;63.422756;11.760273;NO
39639;Bjerka stasjon;bjerka-stasjon;66.14984;13.83142;NO
39640;Koppang stasjon;koppang-stasjon;61.573112;11.044307;NO
39641;Dunderland stasjon;dunderland-stasjon;66.44616;14.837782;NO
39642;Lundamo stasjon;lundamo-stasjon;63.15192;10.280175;NO
39643;Kotsøy stasjon;kotsoy-stasjon;62.976433;10.561233;NO
39644;Skonseng stasjon;skonseng-stasjon;66.362076;14.344668;NO
39645;Bjorli stasjon;bjorli-stasjon;62.258537;8.201511;NO
39646;Bellingmo stasjon;bellingmo-stasjon;62.030094;10.78518;NO
39647;Ålen stasjon;alen-stasjon;62.846367;11.315089;NO
39648;Singsås stasjon;singsas-stasjon;62.95629;10.729145;NO
39649;Elverum stasjon;elverum-stasjon;60.882854;11.546232;NO
39650;Reitan stasjon;reitan-stasjon;62.80743;11.379186;NO
39651;Rena stasjon;rena-stasjon;61.134586;11.369849;NO
39652;Moelv stasjon;moelv-stasjon;60.929916;10.698661;NO
39653;Kopperå stasjon;koppera-stasjon;63.392063;11.848486;NO
39655;Mo i Rana stasjon;mo-i-rana-stasjon;66.30953;14.132984;NO
39656;Skogn stasjon;skogn-stasjon;63.70514;11.19399;NO
39657;Grong stasjon;grong-stasjon;64.458305;12.337443;NO
39658;Ringebu stasjon;ringebu-stasjon;61.529255;10.139346;NO
39659;Mørkved stasjon;morkved-stasjon;67.28387;14.556891;NO
39660;Hovin stasjon;hovin-stasjon;63.098885;10.230251;NO
39661;Haltdalen stasjon;haltdalen-stasjon;62.92833;11.144176;NO
39662;Jørstad stasjon;jorstad-stasjon;64.20661;12.241623;NO
39663;Dombås stasjon;dombas-stasjon;62.068703;9.125487;NO
39664;Lesja stasjon;lesja-stasjon;62.11853;8.853838;NO
39665;Harran stasjon;harran-stasjon;64.568726;12.493941;NO
39666;Lassemoen stasjon;lassemoen-stasjon;64.69626;12.714856;NO
39667;Ler stasjon;ler-stasjon;63.197796;10.298162;NO
39668;Lesjaverk stasjon;lesjaverk-stasjon;62.192474;8.538182;NO
39669;Kongsvoll stasjon;kongsvoll-stasjon;62.30705;9.606088;NO
39670;Åndalsnes stasjon;andalsnes-stasjon;62.56741;7.69062;NO
39671;Kvål stasjon;kval-stasjon;63.23336;10.279976;NO
39672;Brakerøya stasjon;brakeroya-stasjon;59.74379;10.232988;NO
39673;Råde stasjon;rade-stasjon;59.34739;10.86621;NO
39674;Røyken stasjon;royken-stasjon;59.746677;10.389826;NO
39675;Tønsberg stasjon;tonsberg-stasjon;59.271927;10.409468;NO
39676;Askim stasjon;askim-stasjon;59.5818;11.163343;NO
39677;Slitu stasjon;slitu-stasjon;59.566933;11.261982;NO
39678;Ås stasjon;as-stasjon;59.663277;10.794565;NO
39679;Nyland stasjon;nyland-stasjon;59.94394;10.871645;NO
39680;Lier stasjon;lier-stasjon;59.76346;10.290438;NO
39681;Tomter stasjon;tomter-stasjon;59.65988;11.002309;NO
39682;Kløve stasjon;klove-stasjon;60.66324;6.534993;NO
39683;Bergen stasjon;bergen-stasjon;60.39033;5.333283;NO
39684;Vikersund stasjon;vikersund-stasjon;59.96919;9.998328;NO
39685;Rygge stasjon;rygge-stasjon;59.377895;10.747897;NO
39686;Hallingskeid stasjon;hallingskeid-stasjon;60.66792;7.252248;NO
39687;Greverud stasjon;greverud-stasjon;59.773293;10.806068;NO
39688;Sande stasjon;sande-stasjon;59.585274;10.204766;NO
39689;Årnes stasjon;arnes-stasjon;60.123722;11.464874;NO
39690;Høvik stasjon;hovik-stasjon;59.901073;10.582718;NO
39691;Geilo stasjon;geilo-stasjon;60.534557;8.206736;NO
39692;Ljosanbotn stasjon;ljosanbotn-stasjon;60.708675;6.90141;NO
39693;Eidsberg stasjon;eidsberg-stasjon;59.513466;11.303643;NO
39694;Rakkestad stasjon;rakkestad-stasjon;59.427258;11.339387;NO
39695;Høn stasjon;hon-stasjon;59.843616;10.455937;NO
39696;Rosenholm stasjon;rosenholm-stasjon;59.823624;10.797858;NO
39697;Torp stasjon;torp-stasjon;59.16559;10.266265;NO
39698;Ljan stasjon;ljan-stasjon;59.852688;10.784618;NO
39699;Gjerdåker stasjon;gjerdaker-stasjon;60.639412;6.463629;NO
39700;Kløfta stasjon;klofta-stasjon;60.075356;11.139169;NO
39701;Trengereid stasjon;trengereid-stasjon;60.429024;5.624319;NO
39702;Høybråten stasjon;hoybraten-stasjon;59.948093;10.927655;NO
39703;Haga stasjon;haga-stasjon;60.05393;11.37354;NO
39704;Fjellhamar stasjon;fjellhamar-stasjon;59.94071;10.981768;NO
39705;Solbråtan stasjon;solbratan-stasjon;59.80098;10.804343;NO
39706;Voss stasjon;voss-stasjon;60.628983;6.410174;NO
39707;Knapstad stasjon;knapstad-stasjon;59.62636;11.032393;NO
39709;Sonsveien stasjon;sonsveien-stasjon;59.51565;10.72585;NO
39710;Finse stasjon;finse-stasjon;60.601772;7.503823;NO
39711;Auli stasjon;auli-stasjon;60.03901;11.351679;NO
39712;Holmlia stasjon;holmlia-stasjon;59.835163;10.797166;NO
39713;Oppegård stasjon;oppegard-stasjon;59.765453;10.812831;NO
39714;Moss stasjon;moss-stasjon;59.43194;10.657371;NO
39715;Vieren stasjon;vieren-stasjon;60.709248;6.979523;NO
39716;Hanaborg stasjon;hanaborg-stasjon;59.93899;10.965481;NO
39717;Reimegrend stasjon;reimegrend-stasjon;60.678238;6.730762;NO
39718;Spydeberg stasjon;spydeberg-stasjon;59.62107;11.079742;NO
39719;Trykkerud stasjon;trykkerud-stasjon;59.51211;9.336053;NO
39720;Kolbotn stasjon;kolbotn-stasjon;59.810925;10.800822;NO
39721;Tuen stasjon;tuen-stasjon;59.94293;11.102806;NO
39722;Spikkestad stasjon;spikkestad-stasjon;59.745;10.343692;NO
39723;Skiple stasjon;skiple-stasjon;60.681133;6.679814;NO
39724;Billingstad stasjon;billingstad-stasjon;59.874783;10.483057;NO
39725;Upsete stasjon;upsete-stasjon;60.72538;7.011496;NO
39726;Sandefjord stasjon;sandefjord-stasjon;59.135197;10.222754;NO
39727;Ygre stasjon;ygre-stasjon;60.64536;6.507339;NO
39728;Sagdalen stasjon;sagdalen-stasjon;59.956264;11.015682;NO
39729;Rånåsfoss stasjon;ranasfoss-stasjon;60.029224;11.327921;NO
39730;Bulken stasjon;bulken-stasjon;60.63058;6.284928;NO
39731;Flå stasjon;fla-stasjon;60.432114;9.473168;NO
39732;Jessheim stasjon;jessheim-stasjon;60.14224;11.176717;NO
39733;Ørneberget stasjon;orneberget-stasjon;60.70377;6.940806;NO
39734;Mysen stasjon;mysen-stasjon;59.553726;11.324217;NO
39735;Fredrikstad stasjon;fredrikstad-stasjon;59.20888;10.950623;NO
39736;Grorud stasjon;grorud-stasjon;59.949757;10.887813;NO
39737;Nordby stasjon;nordby-stasjon;60.15552;11.18162;NO
39738;Myrvoll stasjon;myrvoll-stasjon;59.786594;10.800449;NO
39739;Urdland stasjon;urdland-stasjon;60.67956;6.592897;NO
39740;Leirsund stasjon;leirsund-stasjon;59.999813;11.08682;NO
39741;Øyeflaten stasjon;oyeflaten-stasjon;60.68018;6.627489;NO
39742;Seimsgrend stasjon;seimsgrend-stasjon;60.632442;6.236224;NO
39743;Gulskogen stasjon;gulskogen-stasjon;59.743896;10.160511;NO
39744;Ustaoset stasjon;ustaoset-stasjon;60.496574;8.045222;NO
39745;Porsgrunn stasjon;porsgrunn-stasjon;59.139362;9.658688;NO
39746;Skarnes stasjon;skarnes-stasjon;60.253834;11.680465;NO
39747;Vaksdal stasjon;vaksdal-stasjon;60.4786;5.735231;NO
39748;Blaker stasjon;blaker-stasjon;60.004955;11.301549;NO
39749;Ski stasjon;ski-stasjon;59.718533;10.833893;NO
39750;Heggedal stasjon;heggedal-stasjon;59.786785;10.431154;NO
39751;Vakås stasjon;vakas-stasjon;59.849712;10.467072;NO
39752;Blommenholm stasjon;blommenholm-stasjon;59.897266;10.555106;NO
39753;Stokke stasjon;stokke-stasjon;59.221355;10.300377;NO
39755;Frogner stasjon;frogner-stasjon;60.022865;11.103267;NO
39756;Nerdrum stasjon;nerdrum-stasjon;59.92293;11.141035;NO
39757;Langhus stasjon;langhus-stasjon;59.749702;10.836629;NO
39758;Heia stasjon;heia-stasjon;59.473106;11.329735;NO
39759;Skien stasjon;skien-stasjon;59.21921;9.603542;NO
39760;Holmestrand stasjon;holmestrand-stasjon;59.490314;10.31057;NO
39761;Stabekk stasjon;stabekk-stasjon;59.90803;10.607257;NO
39762;Stange stasjon;stange-stasjon;60.71801;11.19458;NO
39763;Nesbyen stasjon;nesbyen-stasjon;60.576725;9.113014;NO
39764;Lindeberg stasjon;lindeberg-stasjon;60.039448;11.128002;NO
39765;Skoppum stasjon;skoppum-stasjon;59.391182;10.411126;NO
39766;Alna stasjon;alna-stasjon;59.932423;10.835269;NO
39767;Vestby stasjon;vestby-stasjon;59.603817;10.748631;NO
39768;Hauerseter stasjon;hauerseter-stasjon;60.18463;11.19536;NO
39769;Strømmen stasjon;strommen-stasjon;59.949524;11.001614;NO
39770;Evanger stasjon;evanger-stasjon;60.647102;6.109525;NO
39771;Vevelstad stasjon;vevelstad-stasjon;59.756046;10.837594;NO
39772;Arna stasjon;arna-stasjon;60.420116;5.466125;NO
39773;Hønefoss stasjon;honefoss-stasjon;60.16929;10.249456;NO
39774;Nordstrand stasjon;nordstrand-stasjon;59.86373;10.785608;NO
39775;Stanghelle stasjon;stanghelle-stasjon;60.549385;5.733674;NO
39776;Eidsvoll stasjon;eidsvoll-stasjon;60.329674;11.247784;NO
39777;Lørenskog stasjon;lorenskog-stasjon;59.944817;10.94521;NO
39778;Notodden stasjon;notodden-stasjon;59.559235;9.266643;NO
39779;Haugenstua stasjon;haugenstua-stasjon;59.951565;10.908195;NO
39780;Eidsvoll Verk stasjon;eidsvoll-verk-stasjon;60.28784;11.169503;NO
39781;Hauketo stasjon;hauketo-stasjon;59.84588;10.802873;NO
39782;Gullhella stasjon;gullhella-stasjon;59.80694;10.436274;NO
39783;Svingen stasjon;svingen-stasjon;59.92907;11.177606;NO
39784;Kråkstad stasjon;krakstad-stasjon;59.68354;10.890613;NO
39785;Nisterud stasjon;nisterud-stasjon;59.30047;9.484872;NO
39786;Hvalstad stasjon;hvalstad-stasjon;59.858887;10.461827;NO
39787;Darbu stasjon;darbu-stasjon;59.701588;9.800159;NO
39788;Larvik stasjon;larvik-stasjon;59.050156;10.031658;NO
39789;Ål stasjon;al-stasjon;60.626385;8.562126;NO
39790;Mjølfjell stasjon;mjolfjell-stasjon;60.693935;6.840481;NO
39791;Mjøndalen stasjon;mjondalen-stasjon;59.750816;10.011297;NO
39792;Fetsund stasjon;fetsund-stasjon;59.927135;11.162923;NO
39793;Dal stasjon;dal-stasjon;60.248905;11.20256;NO
39794;Kongsvinger stasjon;kongsvinger-stasjon;60.187458;12.003599;NO
39795;Kambo stasjon;kambo-stasjon;59.47781;10.692471;NO
39796;Dale stasjon;dale-stasjon;60.586315;5.815815;NO
39797;Bolstadøyri stasjon;bolstadoyri-stasjon;60.637936;5.957664;NO
39798;Halden stasjon;halden-stasjon;59.120358;11.384059;NO
39799;Bodung stasjon;bodung-stasjon;60.085114;11.419889;NO
39800;Sarpsborg stasjon;sarpsborg-stasjon;59.285957;11.118068;NO
39801;Tangen stasjon;tangen-stasjon;60.61595;11.269596;NO
39802;Slependen stasjon;slependen-stasjon;59.885628;10.502743;NO
39803;Skotbu stasjon;skotbu-stasjon;59.66571;10.946047;NO
39804;Bryn stasjon;bryn-stasjon;59.90836;10.81861;NO
39805;Haugastøl stasjon;haugastol-stasjon;60.51125;7.869977;NO
39806;Steinberg stasjon;steinberg-stasjon;59.75955;9.961711;NO
39807;Sørumsand stasjon;sorumsand-stasjon;59.985878;11.240178;NO
39808;Bondivann stasjon;bondivann-stasjon;59.820312;10.43306;NO
39809;Vestfossen stasjon;vestfossen-stasjon;59.734318;9.86745;NO
39810;Hakadal stasjon;hakadal-stasjon;60.11747;10.829414;NO
39811;Gran stasjon;gran-stasjon;60.35902;10.569848;NO
39812;Tøyen stasjon;toyen-stasjon;59.920895;10.780583;NO
39813;Movatn stasjon;movatn-stasjon;60.037754;10.813036;NO
39814;Reinsvoll stasjon;reinsvoll-stasjon;60.678856;10.616717;NO
39815;Roa stasjon;roa-stasjon;60.283653;10.620679;NO
39816;Lunner stasjon;lunner-stasjon;60.304996;10.584514;NO
39817;Raufoss stasjon;raufoss-stasjon;60.722107;10.613335;NO
39818;Kjelsås stasjon;kjelsas-stasjon;59.96608;10.783277;NO
39819;Stryken stasjon;stryken-stasjon;60.165592;10.720033;NO
39820;Jaren stasjon;jaren-stasjon;60.39277;10.55608;NO
39821;Varingskollen stasjon;varingskollen-stasjon;60.105965;10.847299;NO
39822;Bleiken stasjon;bleiken-stasjon;60.468456;10.500414;NO
39823;Åneby stasjon;aneby-stasjon;60.08557;10.86257;NO
39824;Harestua stasjon;harestua-stasjon;60.20598;10.722439;NO
39825;Grefsen stasjon;grefsen-stasjon;59.941666;10.78064;NO
39826;Grua stasjon;grua-stasjon;60.258904;10.664831;NO
39827;Nydalen stasjon;nydalen-stasjon;59.95174;10.771783;NO
39828;Nittedal stasjon;nittedal-stasjon;60.05829;10.864878;NO
39829;Snippen stasjon;snippen-stasjon;60.02401;10.810005;NO
39830;Eina stasjon;eina-stasjon;60.630444;10.59766;NO
39831;Gjøvik stasjon;gjovik-stasjon;60.79718;10.694316;NO
39832;Lysaker;lysaker;59.913445;10.637247;NO
39833;Blakstad;blakstad;58.507435;8.648684;NO
39834;Lundamo;lundamo;63.15192;10.280175;NO
39835;Tomter;tomter;59.65988;11.002309;NO
39836;Rakkestad;rakkestad;59.427258;11.339387;NO
39837;Auli;auli;60.03901;11.351679;NO
39838;Spydeberg;spydeberg;59.62107;11.079742;NO
39839;Kolbotn;kolbotn;59.810925;10.800822;NO
39840;Billingstad;billingstad;59.874783;10.483057;NO
39841;Leirsund;leirsund;59.999813;11.08682;NO
39842;Frogner;frogner;60.022865;11.103267;NO
39843;Vevelstad;vevelstad;59.756046;10.837594;NO
39844;Fetsund;fetsund;59.927135;11.162923;NO
39845;Reinsvoll;reinsvoll;60.678856;10.616717;NO
61123;Ranheim stasjon;ranheim-stasjon;63.42798;10.534298;NO
61206;Blaker;blaker;60.01333;11.50222;NO
61280;Disenå;disena;60.20861;11.64972;NO
61463;Haga;haga;60.09417;11.62639;NO
61522;Hundorp;hundorp;61.56917;9.98361;NO
61661;Kvitfjell;kvitfjell;61.47472;10.17306;NO
61827;Nerdrum;nerdrum;60.54028;11.23917;NO
61939;Rånåsfoss;ranasfoss;60.05889;11.55583;NO
61994;Skotterud;skotterud;60.0175;12.125;NO
62054;Straumsnes;straumsnes;68.42528;17.6225;NO
62659;Kornsjö Gr;kornsjo-gr;58.93444;11.67;NO
62821;Raade;raade;59.33083;10.905;NO
62978;Søsterbekk;sosterbekk;68.435;18.00306;NO
63828;Marienborg TND;marienborg-tnd;63.38722;10.4225;NO
64649;Vaernes;vaernes;63.45417;10.91389;NO
65383;Narvik stn;narvik-stn;68.44167;17.44139;NO
65608;Sörumsand;sorumsand;59.9875;11.29806;NO
66148;Sira bussterminal;sira-bussterminal;58.41739;6.660443;NO
66149;Drammen bussterminal;drammen-bussterminal;59.740086;10.203426;NO
66150;Feda bussterminal;feda-bussterminal;58.264793;6.845413;NO
66151;Flekkefjord bussterminal;flekkefjord-bussterminal;58.29497;6.667148;NO
66152;Ganddal bussterminal;ganddal-bussterminal;58.823;5.71715;NO
66153;Krossmoen bussterminal;krossmoen-bussterminal;58.52294;6.097366;NO
66154;Gand vgs bussterminal;gand-vgs-bussterminal;58.84605;5.735929;NO
66155;Oslo S Trelastgata bussterminal;oslo-s-trelastgata-bussterminal;59.909584;10.755165;NO
66156;Asker bussterminal;asker-bussterminal;59.83331;10.433721;NO
66157;Jåttåvågen bussterminal;jattavagen-bussterminal;58.913857;5.727833;NO
66158;Gyland bussterminal;gyland-bussterminal;58.3844;6.837149;NO
66159;Tollboden bussterminal;tollboden-bussterminal;59.909267;10.74877;NO
66160;Varhaug bussterminal;varhaug-bussterminal;58.61878;5.64583;NO
66161;Lysaker bussterminal;lysaker-bussterminal;59.913094;10.637742;NO
66162;Øksnavadporten bussterminal;oksnavadporten-bussterminal;58.7867;5.702336;NO
66163;Kongsberg Baneveien bussterminal;kongsberg-baneveien-bussterminal;59.672478;9.651487;NO
66164;Klepp bussterminal;klepp-bussterminal;58.77223;5.678389;NO
66165;Bryne bussterminal;bryne-bussterminal;58.734863;5.649116;NO
66166;Storekvina bussterminal;storekvina-bussterminal;58.379753;6.958294;NO
66167;Nærbø bussterminal;naerbo-bussterminal;58.665756;5.639648;NO
66168;Stavanger bussterminal;stavanger-bussterminal;58.966625;5.732917;NO
66169;Lensmannslia bussterminal;lensmannslia-bussterminal;59.83096;10.433493;NO
66170;Snartemo bussterminal;snartemo-bussterminal;58.331917;7.211261;NO
66171;Sandnes Sentrum bussterminal;sandnes-sentrum-bussterminal;58.852184;5.737602;NO
66172;Egersund bussterminal;egersund-bussterminal;58.461185;6.003577;NO
66173;Singsås bussterminal;singsas-bussterminal;62.956264;10.729984;NO
66174;Haltdalen bussterminal;haltdalen-bussterminal;62.92833;11.144472;NO
66175;Elverum bussterminal;elverum-bussterminal;60.88279;11.546775;NO
66176;Hell bussterminal;hell-bussterminal;63.445927;10.899285;NO
66177;Skansen bussterminal;skansen-bussterminal;63.431194;10.378787;NO
66178;Heimdal bussterminal;heimdal-bussterminal;63.350872;10.356465;NO
66179;Melhus bussterminal;melhus-bussterminal;63.284603;10.27728;NO
66180;Hamar bussterminal;hamar-bussterminal;60.791836;11.076053;NO
66181;Reitan bussterminal;reitan-bussterminal;62.807304;11.379963;NO
66182;Rena bussterminal;rena-bussterminal;61.134872;11.369841;NO
66183;Lademoen bussterminal;lademoen-bussterminal;63.43719;10.416984;NO
66184;Namsskogan bussterminal;namsskogan-bussterminal;64.92597;13.152147;NO
66185;Rognes bussterminal;rognes-bussterminal;63.00449;10.4589;NO
66186;Ilseng bussterminal;ilseng-bussterminal;60.77652;11.222626;NO
66187;Glåmos bussterminal;glamos-bussterminal;62.673782;11.418698;NO
66188;Grong bussterminal;grong-bussterminal;64.45789;12.337177;NO
66189;Jørstad bussterminal;jorstad-bussterminal;64.20713;12.246194;NO
66190;Lilleby bussterminal;lilleby-bussterminal;63.439884;10.432905;NO
66191;Leangen bussterminal;leangen-bussterminal;63.436584;10.464478;NO
66192;Ronglan bussterminal;ronglan-bussterminal;63.666344;11.113135;NO
66193;Trondheim S bussterminal;trondheim-s-bussterminal;63.436108;10.40108;NO
66194;Rognes bru bussterminal;rognes-bru-bussterminal;63.00406;10.455127;NO
66195;Hommelvik bussterminal;hommelvik-bussterminal;63.41145;10.794617;NO
66196;Røros bussterminal;roros-bussterminal;62.574623;11.380059;NO
66197;Unsholte bussterminal;unsholte-bussterminal;62.819363;11.331011;NO
66198;Vikhamar bussterminal;vikhamar-bussterminal;63.43839;10.622669;NO
66199;Haltdalen Coop bussterminal;haltdalen-coop-bussterminal;62.92448;11.152943;NO
66200;Ålen sentrum bussterminal;alen-sentrum-bussterminal;62.842056;11.300604;NO
66201;Marienborg bussterminal;marienborg-bussterminal;63.417934;10.382497;NO
66202;Strindheim bussterminal;strindheim-bussterminal;63.435234;10.457002;NO
66203;Leistadkrysset bussterminal;leistadkrysset-bussterminal;63.422523;10.629983;NO
66204;Losgata bussterminal;losgata-bussterminal;63.4379;10.417499;NO
66205;Atna bussterminal;atna-bussterminal;61.732456;10.834461;NO
66206;Kalvskinnet bussterminal;kalvskinnet-bussterminal;63.430275;10.379194;NO
66207;Statoil Rotvoll bussterminal;statoil-rotvoll-bussterminal;63.43672;10.479264;NO
66208;Bollingmo bussterminal;bollingmo-bussterminal;62.961082;10.978874;NO
66209;Skatval kirke bussterminal;skatval-kirke-bussterminal;63.512276;10.858471;NO
66210;Trondheim lufthavn bussterminal;trondheim-lufthavn-bussterminal;63.454052;10.917269;NO
66211;Stjørdal bussterminal;stjordal-bussterminal;63.469666;10.913716;NO
66212;Grøndalselv bussterminal;grondalselv-bussterminal;64.69187;12.75313;NO
66213;Skatval bussterminal;skatval-bussterminal;63.509056;10.826619;NO
66214;Lillestrøm bussterminal;lillestrom-bussterminal;59.953896;11.043521;NO
66215;Skogn bussterminal;skogn-bussterminal;63.705406;11.194127;NO
66216;Auma bussterminal;auma-bussterminal;62.220207;10.649224;NO
66217;Levanger bussterminal;levanger-bussterminal;63.745102;11.300767;NO
66218;Steinkjer bussterminal;steinkjer-bussterminal;64.01261;11.495423;NO
66219;Bergsgrav bussterminal;bergsgrav-bussterminal;63.771908;11.469882;NO
66220;Verdal bussterminal;verdal-bussterminal;63.791588;11.484554;NO
66221;Snåsa bussterminal;snasa-bussterminal;64.24591;12.381093;NO
66222;Røra bussterminal;rora-bussterminal;63.857018;11.400086;NO
66223;Mosjøen bussterminal;mosjoen-bussterminal;65.84439;13.200561;NO
66224;Majavatn bussterminal;majavatn-bussterminal;65.164536;13.368198;NO
66225;Trofors bussterminal;trofors-bussterminal;65.53783;13.384149;NO
66226;Tronmo kryss bussterminal;tronmo-kryss-bussterminal;66.05245;13.549405;NO
66227;Dunderland bussterminal;dunderland-bussterminal;66.44602;14.837588;NO
66228;Fauske bussterminal;fauske-bussterminal;67.26429;15.398101;NO
66229;Lønsdal bussterminal;lonsdal-bussterminal;66.74253;15.462865;NO
66230;Røklandsenteret bussterminal;roklandsenteret-bussterminal;66.98147;15.315283;NO
66231;Messingslett kryss bussterminal;messingslett-kryss-bussterminal;66.47301;14.862437;NO
66232;Rognan bussterminal;rognan-bussterminal;67.09362;15.398854;NO
66233;Strømsnes bussterminal;stromsnes-bussterminal;67.299545;15.185358;NO
66234;Mo bussterminal;mo-bussterminal;66.3097;14.134421;NO
66235;Drevvatn bussterminal;drevvatn-bussterminal;66.07134;13.455433;NO
66236;Bodø bussterminal;bodo-bussterminal;67.286545;14.390263;NO
66237;Bjerka bussterminal;bjerka-bussterminal;66.149704;13.830988;NO
66238;Ålen bussterminal;alen-bussterminal;62.84635;11.315312;NO
66239;Oslo lufthavn bussterminal;oslo-lufthavn-bussterminal;60.193474;11.097244;NO
66240;Tverlandet bussterminal;tverlandet-bussterminal;67.301025;14.74579;NO
66241;Koppang bussterminal;koppang-bussterminal;61.573467;11.044528;NO
66242;Lassemoen bussterminal;lassemoen-bussterminal;64.6961;12.714875;NO
66243;Rognan E6 bussterminal;rognan-e6-bussterminal;67.08384;15.385516;NO
66244;Oteråga bussterminal;oteraga-bussterminal;67.29894;14.866943;NO
66245;Røstad bussterminal;rostad-bussterminal;63.752995;11.318925;NO
66246;Oslo Tollbugata bussterminal;oslo-tollbugata-bussterminal;59.909046;10.748821;NO
66247;Støren bussterminal;storen-bussterminal;63.051716;10.284657;NO
66248;Steinvik bussterminal;steinvik-bussterminal;61.251484;11.324957;NO
66249;Sparbu bussterminal;sparbu-bussterminal;63.91967;11.428751;NO
66250;Tolga bussterminal;tolga-bussterminal;62.40813;10.997781;NO
66251;Tynset bussterminal;tynset-bussterminal;62.273643;10.774144;NO
66252;Alvdal bussterminal;alvdal-bussterminal;62.10913;10.632346;NO
66253;Bellingmo bussterminal;bellingmo-bussterminal;62.03196;10.787758;NO
66254;Røkland bussterminal;rokland-bussterminal;66.98591;15.317722;NO
66255;Os bussterminal;os-bussterminal;62.49725;11.226958;NO
66256;Løten bussterminal;loten-bussterminal;60.81868;11.341341;NO
66257;Stai bussterminal;stai-bussterminal;61.49569;11.054011;NO
66258;Evenstad bussterminal;evenstad-bussterminal;61.422897;11.097178;NO
66259;Opphus bussterminal;opphus-bussterminal;61.331535;11.260461;NO
66260;Hanestad bussterminal;hanestad-bussterminal;61.838074;10.879796;NO
66261;Koppang Øverengsmoen Shell bussterminal;koppang-overengsmoen-shell-bussterminal;61.587837;10.997453;NO
66262;Brumunddal bussterminal;brumunddal-bussterminal;60.88109;10.938866;NO
66263;Spydeberg bussterminal;spydeberg-bussterminal;59.62084;11.080385;NO
66264;Råde bussterminal;rade-bussterminal;59.347332;10.867394;NO
66265;Otta bussterminal;otta-bussterminal;61.77271;9.536153;NO
66266;Ski Vestveien P-plass bussterminal;ski-vestveien-p-plass-bussterminal;59.71813;10.832718;NO
66267;Ringebu bussterminal;ringebu-bussterminal;61.52951;10.138547;NO
66268;Stokke bussterminal;stokke-bussterminal;59.221252;10.300371;NO
66269;Lillehammer bussterminal;lillehammer-bussterminal;61.114742;10.461624;NO
66270;Dombås skyssterminal bussterminal;dombas-skyssterminal-bussterminal;62.07326;9.125403;NO
66271;Hjerkinn bussterminal;hjerkinn-bussterminal;62.22025;9.541358;NO
66272;Vestfossen bussterminal;vestfossen-bussterminal;59.734417;9.867784;NO
66273;Skøyen bussterminal;skoyen-bussterminal;59.921955;10.677136;NO
66274;Lier bussterminal;lier-bussterminal;59.762417;10.289155;NO
66275;Røyken bussterminal;royken-bussterminal;59.746506;10.389904;NO
66276;Mjøndalen bussterminal;mjondalen-bussterminal;59.75058;10.012007;NO
66277;Steinberg bussterminal;steinberg-bussterminal;59.75986;9.961285;NO
66278;Knapstad bussterminal;knapstad-bussterminal;59.620434;11.03102;NO
66279;Tomter bussterminal;tomter-bussterminal;59.660084;11.001421;NO
66280;Gulskogen gård bussterminal;gulskogen-gard-bussterminal;59.746063;10.163791;NO
66281;Eidsvoll Verk bussterminal;eidsvoll-verk-bussterminal;60.28756;11.169821;NO
66282;Brakerøya bussterminal;brakeroya-bussterminal;59.74373;10.231879;NO
66283;Sande bussterminal;sande-bussterminal;59.585068;10.206177;NO
66284;Sandefjord lufthavn Torp bussterminal;sandefjord-lufthavn-torp-bussterminal;59.179104;10.252672;NO
66285;Larvik bussterminal;larvik-bussterminal;59.05071;10.030096;NO
66286;Holmestrand bussterminal;holmestrand-bussterminal;59.492535;10.312225;NO
66287;Skoppum bussterminal;skoppum-bussterminal;59.390285;10.410929;NO
66288;Porsgrunn bussterminal;porsgrunn-bussterminal;59.139263;9.658557;NO
66289;Halden bussterminal;halden-bussterminal;59.120296;11.384717;NO
66290;Skien bussterminal;skien-bussterminal;59.218716;9.603063;NO
66291;Slitu bussterminal;slitu-bussterminal;59.58014;11.262348;NO
66292;Mysen bussterminal;mysen-bussterminal;59.55405;11.324528;NO
66293;Fredrikstad bussterminal;fredrikstad-bussterminal;59.20876;10.95059;NO
66294;Kambo bussterminal;kambo-bussterminal;59.477516;10.693691;NO
66295;Moss bussterminal;moss-bussterminal;59.432323;10.657114;NO
66296;Høvik bussterminal;hovik-bussterminal;59.901134;10.583631;NO
66297;Eidsvoll bussterminal;eidsvoll-bussterminal;60.330173;11.247125;NO
66298;Høybråten bussterminal;hoybraten-bussterminal;59.950962;10.929495;NO
66299;Nebbenes bussterminal;nebbenes-bussterminal;60.313858;11.145574;NO
66300;Dal bussterminal;dal-bussterminal;60.249073;11.203389;NO
66301;Bondi skole bussterminal;bondi-skole-bussterminal;59.823097;10.435848;NO
66302;Gullhella sykehjem bussterminal;gullhella-sykehjem-bussterminal;59.814648;10.446248;NO
66303;Heggedal bussterminal;heggedal-bussterminal;59.7873;10.432465;NO
66304;Kolbotn bussterminal;kolbotn-bussterminal;59.81126;10.800931;NO
66305;Solbråtan bussterminal;solbratan-bussterminal;59.800865;10.804793;NO
66306;Myrvoll bussterminal;myrvoll-bussterminal;59.78726;10.802465;NO
66307;Greverud kirke bussterminal;greverud-kirke-bussterminal;59.774635;10.804128;NO
66308;Oppegård bussterminal;oppegard-bussterminal;59.765163;10.812041;NO
66309;Rosenholm bussterminal;rosenholm-bussterminal;59.8227;10.796242;NO
66310;Grorud bussterminal;grorud-bussterminal;59.94969;10.886181;NO
66311;Lindeberg bussterminal;lindeberg-bussterminal;60.039528;11.12808;NO
66312;Sandefjord bussterminal;sandefjord-bussterminal;59.13516;10.222424;NO
66313;Sandvika bussterminal;sandvika-bussterminal;59.892906;10.524556;NO
66314;Nationaltheatret bussterminal;nationaltheatret-bussterminal;59.914658;10.7328;NO
66315;Frogner bussterminal;frogner-bussterminal;60.023483;11.106569;NO
66316;Askim bussterminal;askim-bussterminal;59.58153;11.163291;NO
66317;Oppdal bussterminal;oppdal-bussterminal;62.593563;9.695223;NO
66318;Slependen bussterminal;slependen-bussterminal;59.877907;10.503412;NO
66319;Billingstadveien bussterminal;billingstadveien-bussterminal;59.87448;10.491291;NO
66320;Hvalstad bussterminal;hvalstad-bussterminal;59.85706;10.466806;NO
66321;Leirsund bussterminal;leirsund-bussterminal;59.99978;11.086917;NO
66322;Vestby bussterminal;vestby-bussterminal;59.60421;10.749717;NO
66323;Sonsveien bussterminal;sonsveien-bussterminal;59.514812;10.726492;NO
66324;Hanaborg bussterminal;hanaborg-bussterminal;59.938892;10.96741;NO
66325;Jessheim bussterminal;jessheim-bussterminal;60.141895;11.176129;NO
66326;Nordby bussterminal;nordby-bussterminal;60.154793;11.181069;NO
66327;Blommenholm bussterminal;blommenholm-bussterminal;59.89696;10.554514;NO
66328;Kløfta bussterminal;klofta-bussterminal;60.07493;11.138586;NO
66329;Hauerseter bussterminal;hauerseter-bussterminal;60.18711;11.196442;NO
66330;Langhus bussterminal;langhus-bussterminal;59.749683;10.83746;NO
66331;Vevelstad bussterminal;vevelstad-bussterminal;59.75654;10.839367;NO
66332;Bondivann bussterminal;bondivann-bussterminal;59.820354;10.43264;NO
66333;Ås bussterminal;as-bussterminal;59.663815;10.793933;NO
66334;Bryn bussterminal;bryn-bussterminal;59.908627;10.818226;NO
66335;Ås Stasjon bussterminal;as-stasjon-bussterminal;59.663208;10.794907;NO
66336;Sagdalen bussterminal;sagdalen-bussterminal;59.957268;11.016178;NO
66337;Haugenstua bussterminal;haugenstua-bussterminal;59.95147;10.910823;NO
66338;Skavbakken Buss for tog bussterminal;skavbakken-buss-for-tog-bussterminal;60.633297;11.299579;NO
66339;Tangen Stasjon bussterminal;tangen-stasjon-bussterminal;60.61632;11.269119;NO
66340;Haga bussterminal;haga-bussterminal;60.05409;11.37424;NO
66341;Kråkstad bussterminal;krakstad-bussterminal;59.68324;10.8909;NO
66342;Darbu bussterminal;darbu-bussterminal;59.701443;9.801037;NO
66343;Årnes bussterminal;arnes-bussterminal;60.123333;11.465076;NO
66344;Tønsberg bussterminal;tonsberg-bussterminal;59.271847;10.408898;NO
66345;Hauketo bussterminal;hauketo-bussterminal;59.84612;10.803321;NO
66346;Holmlia bussterminal;holmlia-bussterminal;59.83497;10.796795;NO
66347;Spikkestad bussterminal;spikkestad-bussterminal;59.745056;10.342495;NO
66348;Stabekk bussterminal;stabekk-bussterminal;59.908195;10.607771;NO
66349;Rygge bussterminal;rygge-bussterminal;59.377922;10.748127;NO
66350;Stange bussterminal;stange-bussterminal;60.71755;11.194926;NO
66351;Skarnes bussterminal;skarnes-bussterminal;60.254105;11.681054;NO
66352;Sarpsborg bussterminal;sarpsborg-bussterminal;59.28574;11.118062;NO
66353;Moelv bussterminal;moelv-bussterminal;60.93019;10.698683;NO
66354;Kongsvinger bussterminal;kongsvinger-bussterminal;60.187344;12.004492;NO
66355;Skotbu bussterminal;skotbu-bussterminal;59.66537;10.94672;NO
66356;Hønefoss bussterminal;honefoss-bussterminal;60.169216;10.249783;NO
66357;Vikersund bussterminal;vikersund-bussterminal;59.968967;9.998534;NO
66358;Bergen busstasjon bussterminal;bergen-busstasjon-bussterminal;60.388115;5.333857;NO
66359;Arna bussterminal;arna-bussterminal;60.420067;5.464154;NO
66360;Dale bussterminal;dale-bussterminal;60.586395;5.815459;NO
66361;Bergen bussterminal;bergen-bussterminal;60.390553;5.33376;NO
66362;Lunner bussterminal;lunner-bussterminal;60.30514;10.584329;NO
66363;Roa bussterminal;roa-bussterminal;60.2836;10.62101;NO
66364;Jaren bussterminal;jaren-bussterminal;60.39245;10.55666;NO
66365;Gran bussterminal;gran-bussterminal;60.359028;10.570115;NO
66366;Raufoss bussterminal;raufoss-bussterminal;60.72259;10.613329;NO
66367;Reinsvoll sør bussterminal;reinsvoll-sor-bussterminal;60.67698;10.615581;NO
66368;Gjøvik bussterminal;gjovik-bussterminal;60.79644;10.694396;NO
66369;Eina bussterminal;eina-bussterminal;60.63065;10.597831;NO
66370;Bleiken bussterminal;bleiken-bussterminal;60.46867;10.500407;NO
66871;Brakeröya;brakeroya;59.74361;10.23278;NO
67353;Rom bussterminal;rom-bussterminal;58.15603;7.102093;NO
67354;Rosseland E39 bussterminal;rosseland-e39-bussterminal;58.135807;7.855728;NO
67355;Marnarkrysset bussterminal;marnarkrysset-bussterminal;58.03239;7.484595;NO
67356;Sirnes E39 bussterminal;sirnes-e39-bussterminal;58.406185;6.622835;NO
67357;Moi bussterminal;moi-bussterminal;58.457954;6.551325;NO
67358;Ruten bussterminal;ruten-bussterminal;58.851395;5.736569;NO
67359;Kristiansand bussterminal;kristiansand-bussterminal;58.145435;7.987996;NO
67360;Vinstra bussterminal;vinstra-bussterminal;61.59544;9.747473;NO
67361;Ski vest bussterminal;ski-vest-bussterminal;59.71871;10.832265;NO
67362;Voss bussterminal;voss-bussterminal;60.628986;6.412247;NO
67844;Hokksund bussterminal;hokksund-bussterminal;59.767265;9.91132;NO
67845;Hellvik bussterminal;hellvik-bussterminal;58.48606;5.897043;NO
67846;Marnardal bussterminal;marnardal-bussterminal;58.212997;7.512731;NO
67847;Nodeland bussterminal;nodeland-bussterminal;58.156944;7.834923;NO
67848;Sirevåg bussterminal;sirevag-bussterminal;58.502384;5.807132;NO
67849;Ogna bussterminal;ogna-bussterminal;58.519585;5.803791;NO
67850;Vigrestad bussterminal;vigrestad-bussterminal;58.570538;5.687625;NO
67851;Audnedal bussterminal;audnedal-bussterminal;58.318817;7.367729;NO
67852;Brusand bussterminal;brusand-bussterminal;58.541286;5.746429;NO
67853;Dombås bussterminal;dombas-bussterminal;62.069626;9.125897;NO
67854;Hovin bussterminal;hovin-bussterminal;63.098667;10.229866;NO
67855;Kvål bussterminal;kval-bussterminal;63.230263;10.281705;NO
67856;Ler bussterminal;ler-bussterminal;63.19779;10.301831;NO
67857;Lundamo bussterminal;lundamo-bussterminal;63.151604;10.280762;NO
67858;Kongsvold Fjeldstue bussterminal;kongsvold-fjeldstue-bussterminal;62.303642;9.605061;NO
67859;Berkåk bussterminal;berkak-bussterminal;62.823128;10.01401;NO
67860;Circle K Øyer bussterminal;circle-k-oyer-bussterminal;61.242573;10.433607;NO
67861;Selsbakk bussterminal;selsbakk-bussterminal;63.388973;10.372043;NO
67862;Strømshuguvegen bussterminal;stromshuguvegen-bussterminal;61.242275;10.433751;NO
67863;Hunderfossen Eventyrpark bussterminal;hunderfossen-eventyrpark-bussterminal;61.22556;10.435401;NO
67864;Solgården bussterminal;solgarden-bussterminal;59.84951;10.447759;NO
67865;Kolbotnkrysset bussterminal;kolbotnkrysset-bussterminal;59.809788;10.806202;NO
67866;Ljan bussterminal;ljan-bussterminal;59.852802;10.784765;NO
67867;Gamle Vevelstadvei bussterminal;gamle-vevelstadvei-bussterminal;59.75382;10.829403;NO
67868;Korsegården bussterminal;korsegarden-bussterminal;59.66343;10.745385;NO
67869;Fjellsrud skole bussterminal;fjellsrud-skole-bussterminal;59.93746;10.97843;NO
67870;Lørenskog bussterminal;lorenskog-bussterminal;59.94448;10.944906;NO
67871;Strømmen bussterminal;strommen-bussterminal;59.948845;11.00181;NO
67872;Brynseng T bussterminal;brynseng-t-bussterminal;59.90962;10.813749;NO
67873;Kvam bussterminal;kvam-bussterminal;61.665092;9.700952;NO
67874;Dovre bussterminal;dovre-bussterminal;61.984573;9.256717;NO
67875;Haugastøl bussterminal;haugastol-bussterminal;60.511623;7.865467;NO
67876;Flå bussterminal;fla-bussterminal;60.431866;9.47275;NO
67877;Ål bussterminal;al-bussterminal;60.626534;8.561273;NO
67878;Gol bussterminal;gol-bussterminal;60.699074;8.96888;NO
67879;Mjølfjell bussterminal;mjolfjell-bussterminal;60.69411;6.840823;NO
67880;Nesbyen bussterminal;nesbyen-bussterminal;60.577038;9.112371;NO
67881;Bulken E16 bussterminal;bulken-e16-bussterminal;60.631252;6.277571;NO
67882;Bolstad bussterminal;bolstad-bussterminal;60.637665;5.957484;NO
67883;Evanger bussterminal;evanger-bussterminal;60.647488;6.110489;NO
67884;Gjerdåker bussterminal;gjerdaker-bussterminal;60.639557;6.463768;NO
67885;Urdland bussterminal;urdland-bussterminal;60.6798;6.593272;NO
67886;Trengereid rundkøyring bussterminal;trengereid-rundkoyring-bussterminal;60.425568;5.624321;NO
67887;Trengereiddal ved kiosk bussterminal;trengereiddal-ved-kiosk-bussterminal;60.42441;5.627183;NO
67888;Vaksdal senter bussterminal;vaksdal-senter-bussterminal;60.47672;5.742274;NO
67889;Stanghelle sør bussterminal;stanghelle-sor-bussterminal;60.551388;5.739479;NO
67890;Skei Naustdal bussterminal;skei-naustdal-bussterminal;61.524536;5.739453;NO
67891;Ustaoset bussterminal;ustaoset-bussterminal;60.49685;8.044712;NO
67892;Reimegrend bussterminal;reimegrend-bussterminal;60.678234;6.731537;NO
67893;Ljosanbotn bussterminal;ljosanbotn-bussterminal;60.70949;6.901563;NO
67894;Ygre bussterminal;ygre-bussterminal;60.645206;6.506647;NO
67895;Ørneberget bussterminal;orneberget-bussterminal;60.70281;6.937628;NO
67896;Øyeflaten bussterminal;oyeflaten-bussterminal;60.67999;6.628462;NO
67897;Kløve bussterminal;klove-bussterminal;60.6633;6.534923;NO
67898;Dale heradshus bussterminal;dale-heradshus-bussterminal;60.590076;5.822789;NO
67899;Geilo bussterminal;geilo-bussterminal;60.534733;8.207554;NO
67900;Trengereid bussterminal;trengereid-bussterminal;60.429054;5.624231;NO
67901;Skiple bussterminal;skiple-bussterminal;60.680298;6.681471;NO
67902;Grua bussterminal;grua-bussterminal;60.25862;10.664932;NO
67903;Harestua bussterminal;harestua-bussterminal;60.205956;10.722627;NO
67904;Movatn bussterminal;movatn-bussterminal;60.037838;10.812682;NO
67905;Nittedal bussterminal;nittedal-bussterminal;60.058353;10.86505;NO
67906;Åneby bussterminal;aneby-bussterminal;60.089417;10.872822;NO
67907;Varingskollen bussterminal;varingskollen-bussterminal;60.107265;10.854798;NO
67908;Sagstua bussterminal;sagstua-bussterminal;60.11725;10.837435;NO
67909;Sinsen T bussterminal;sinsen-t-bussterminal;59.93641;10.78225;NO
67910;Grefsen bussterminal;grefsen-bussterminal;59.94106;10.781493;NO
67911;Nydalen bussterminal;nydalen-bussterminal;59.952915;10.7696;NO
67912;Kjelsås bussterminal;kjelsas-bussterminal;59.96566;10.782258;NO
67913;Sandermosveien bussterminal;sandermosveien-bussterminal;60.019356;10.786445;NO
67914;Snippen bussterminal;snippen-bussterminal;60.024937;10.809532;NO