id;name;uic;lat;lon;country
1;Château-Arnoux – St-Auban;chateau-arnoux-st-auban;44.0817900000;6.0016250000;FR
2;Château-Arnoux – St-Auban;chateau-arnoux-st-auban;44.0615651;5.9973734;FR
3;Château-Arnoux Mairie;chateau-arnoux-mairie;44.063863;6.011248;FR
4;Digne-les-Bains;digne-les-bains;44.3500000000;6.3500000000;FR
6;Digne-les-Bains;digne-les-bains;44.088710133980605;6.222982406616211;FR
7;La Crau;la-crau;43.1449352;6.0687663;FR
8;Aire-sur-l’Adour;aire-sur-ladour;43.703854;-0.258269;FR
9;Cagnes-sur-Mer;cagnes-sur-mer;43.65813;7.14864;FR
10;Menton;menton;43.7764860000;7.5043490000;FR
11;Menton;menton;43.774444;7.493300;FR
12;Menton – Garavan;menton-garavan;43.785202;7.517297;FR
16;Vievola;vievola;;;FR
17;Vievola;vievola;;;FR
18;Vievola;vievola;44.1125561;7.5627976;FR
19;Mandelieu-la-Napoule;mandelieu-la-napoule;43.523903;6.941313;FR
23;Decazeville;decazeville;44.5500000000;2.2500000000;FR
24;Decazeville Centre;decazeville-centre;44.561434;2.255896;FR
25;Viviez – Decazeville;viviez-decazeville;44.5555678;2.2182582;FR
26;Decazeville Fontvergne;decazeville-fontvergne;44.55563533558816;2.263741493225097;FR
27;St-Sever Calvados;st-sever-calvados;48.8333330000;-1.0333330000;FR
28;St-Sever Centre;st-sever-centre;48.839517;-1.049283;FR
29;St-Sever Calvados;st-sever-calvados;48.843608;-1.0516979;FR
30;Vire;vire;48.83897;-0.88928;FR
31;Vire Centre;vire-centre;48.837638;-0.880538;FR
32;Vire;vire;48.846329;-0.882884;FR
33;Marans;marans;46.3000000000;-1.0000000000;FR
34;Marans Centre;marans-centre;46.290815;-0.979212;FR
35;Marans;marans;46.30433;-1.00127;FR
36;Uzerche;uzerche;45.4407088;1.5702735;FR
38;Dijon Ville;dijon-ville;47.323370;5.027208;FR
40;Pontrieux;pontrieux;48.7000000000;-3.1666670000;FR
41;Pontrieux Halte;pontrieux-halte;48.6980361;-3.1644959;FR
42;Pontrieux;pontrieux;48.7056437;-3.1574281;FR
43;Auboué;auboue;49.216163;5.9714608;FR
44;Périgueux;perigueux;45.187408;0.707879;FR
45;Besançon Viotte;besancon-viotte;47.247019;6.022003;FR
47;Douarnenez Office de Tourisme;douarnenez-office-de-tourisme;48.09336269013469;-4.3303728103637695;FR
50;Concarneau;concarneau;47.8666670000;-3.9166670000;FR
51;Concarneau Port;concarneau-port;47.867055;-3.927593;FR
52;Concarneau;concarneau;47.87767079094932;-3.9205312728881836;FR
55;Aboncourt;aboncourt;49.2666670000;6.3500000000;FR
56;Aiton – Bourgneuf;aiton-bourgneuf;45.5666670000;6.2500000000;FR
57;Colomiers;colomiers;43.6166670000;1.3500000000;FR
58;Colomiers;colomiers;43.603734;1.334221;FR
59;Colomiers Lycée International;colomiers-lycee-international;43.6163055;1.3141157;FR
60;Labège;labege;43.5333330000;1.5333330000;FR
61;Labège Innopole;labege-innopole;43.5473613;1.5129784;FR
62;Labège Village;labege-village;43.5305367;1.5329207;FR
63;Azay-le-Rideau Mairie;azay-le-rideau-mairie;47.2666670000;0.4666670000;FR
64;Albas;albas;44.4666670000;1.2333330000;FR
65;Abancourt;abancourt;49.6852237;1.7743058;FR
66;Lunel;lunel;43.6833330000;4.1333330000;FR
67;Lunel-Viel;lunel-viel;43.6811729;4.0937398;FR
68;Lunel;lunel;43.679392;4.131086;FR
72;Moirans;moirans;45.322185;5.581915;FR
73;Arc-et-Senans;arc-et-senans;47.0303516;5.7767843;FR
74;Accolay;accolay;47.6666670000;3.7166670000;FR
76;Dole Ville;dole-ville;47.096084;5.488105;FR
77;Dax;dax;43.720472;-1.050301;FR
80;Rezé;reze;47.2000000000;-1.5666670000;FR
82;Rezé – Pont-Rousseau;reze-pont-rousseau;47.1932425;-1.5495445;FR
83;Cherbourg;cherbourg;49.633505;-1.621515;FR
84;Angers St-Laud;angers-st-laud;47.464647;-0.556820;FR
85;Saumur;saumur;47.26900;-0.07136;FR
87;Cérences Centre;cerences-centre;48.91686;-1.437824;FR
89;Reims;reims;49.2500000000;4.0333330000;FR
90;Reims Maison Blanche;reims-maison-blanche;49.2336853;4.0224927;FR
91;Champagne-Ardenne TGV;champagne-ardenne-tgv;49.214806;3.994632;FR
92;Reims Ville;reims-ville;49.258978;4.024435;FR
93;Laval;laval;48.076206;-0.760907;FR
94;Accous;accous;42.9833330000;-0.6000000000;FR
95;Achiet;achiet;50.1317525;2.780168;FR
96;Louverné;louverne;48.1333330000;-0.7000000000;FR
97;Louverné;louverne;48.1088564;-0.7144109;FR
98;Louverné Centre;louverne-centre;48.12305356338282;-0.719904899597168;FR
99;Mayenne;mayenne;48.3000000000;-0.6166670000;FR
100;Mayenne;mayenne;48.3064552166399;-0.6205880641937256;FR
101;Mayenne Centre;mayenne-centre;48.299504040832794;-0.611339807510376;FR
104;Arnage;arnage;47.9333330000;0.1833330000;FR
105;Arnage;arnage;47.9285663;0.1898826;FR
106;Arnage Centre;arnage-centre;47.937288;0.163801;FR
107;Carnac;carnac;47.5833330000;-3.0833330000;FR
108;Plouharnel – Carnac;plouharnel-carnac;47.6042943;-3.1184482;FR
109;Les Sables-Blancs;les-sables-blancs;47.5755984;-3.1324467;FR
110;Carnac;carnac;47.584558972342386;-3.0826091766357417;FR
111;St-Pierre-Quiberon;st-pierre-quiberon;47.5166670000;-3.1333330000;FR
112;L’Isthme;listhme;47.5465051;-3.133699;FR
113;St-Pierre-Quiberon;st-pierre-quiberon;47.5210574;-3.138905;FR
114;Metz;metz;49.109545;6.176593;FR
115;Forbach;forbach;49.1833330000;6.9000000000;FR
117;Forbach;forbach-gare;49.1892278;6.9013184;FR
118;Sarreguemines;sarreguemines;49.1099500000;7.0674710000;FR
119;Sarreguemines Poste;sarreguemines-poste;49.110155;7.054923;FR
121;Sarreguemines;sarreguemines;49.1073357;7.0686398;FR
122;Dunkerque;dunkerque;51.030470;2.368961;FR
123;Lille-Flandres;lille-flandres;50.636577;3.069870;FR
124;Haubourdin;haubourdin;50.6070495;2.990153;FR
125;Tourcoing;tourcoing;50.71683;3.16804;FR
126;Nomain;nomain;50.5000000000;3.2500000000;FR
127;Nomain-Ouvignies;nomain-ouvignies;50.5060755;3.2308175;FR
128;Nomain;nomain;50.5023744;3.2063499;FR
129;Croix;croix;;;FR
130;Croix – Wasquehal;croix-wasquehal;50.6785574;3.1380315;FR
131;Croix-l’Allumette;croix-lallumette;50.6872009;3.1516591;FR
132;Roubaix;roubaix;50.69561;3.16348;FR
136;Jeumont;jeumont;50.3000000000;4.1000000000;FR
137;Jeumont;jeumont;50.29606;4.08645;FR
139;Bellegarde-sur-Valserine;bellegarde-sur-valserine;46.1078740000;5.8242130000;FR
140;Bellegarde-sur-Valserine;bellegarde-sur-valserine;46.109425;5.823483;FR
141;Bellegarde-sur-Valserine Lycée Musinens;bellegarde-sur-valserine-lycee-musinens;46.115336;5.794132;FR
143;Briouze;briouze;48.7018622;-0.3682036;FR
148;Calais Ville;calais-ville;50.952613;1.848185;FR
149;Boulogne-sur-Mer Ville;boulogne-sur-mer-ville;50.71570;1.60964;FR
150;Allenc;allenc;44.541296;3.6638926;FR
151;Pau;pau;43.291762;-0.369626;FR
152;Hendaye;hendaye;43.353132;-1.781724;FR
153;Strasbourg;strasbourg;48.584967;7.734584;FR
154;Mertzwiller;mertzwiller;48.8666670000;7.6833330000;FR
155;Mertzwiller;mertzwiller;48.872013;7.6781895;FR
157;Colmar;colmar;48.073201;7.346967;FR
158;Mulhouse;mulhouse;47.742224;7.342396;FR
159;St-Louis (Haut Rhin);st-louis-haut-rhin;47.5833330000;7.5666670000;FR
160;St-Louis La-Chaussée;st-louis-la-chaussee;47.6094781;7.5312095;FR
161;St-Louis;st-louis;47.5906094;7.5559882;FR
162;Thann;thann;;;FR
163;Thann;thann;47.8088208;7.1069795;FR
164;Thann – St-Jacques;thann-st-jacques;47.8133155;7.0938473;FR
165;Givors Canal;givors-canal;45.5957662;4.7725754;FR
166;Aspach-le-Haut;aspach-le-haut;47.6500000000;7.2333330000;FR
167;Aspach-le-Haut;aspach-le-haut;47.769396;7.142379;FR
168;Aspach-le-Bas;aspach-le-bas;47.759832;7.152375;FR
171;Avignon Centre;avignon-centre;43.941900;4.805281;FR
172;Le Mans;le-mans;47.995034;0.190140;FR
173;Joué-lès-Tours Berthelot;joue-les-tours-berthelot;47.3500000000;0.6666670000;FR
174;Eu;eu;50.0500000000;1.4166670000;FR
175;Eu-la-Mouillette;eu-la-mouillette;50.04890671485088;1.4253687858581543;FR
176;Eu;eu;50.0541988;1.416837;FR
177;Alleyras;alleyras;44.919217;3.673517;FR
178;Le Havre;le-havre;49.492996;0.125677;FR
179;Harfleur;harfleur;49.5065960000;0.1982690000;FR
180;Harfleur-Halte;harfleur-halte;49.5059181;0.192085;FR
181;Harfleur;harfleur;49.5136336;0.1989828;FR
182;Montivilliers;montivilliers;49.5500000000;0.2000000000;FR
184;Montivilliers;montivilliers;49.5429758;0.189426;FR
186;Dieppe;dieppe;49.921788;1.081133;FR
187;Fontainebleau – Avon;fontainebleau-avon;48.416371;2.726340;FR
188;Péronne;peronne;50.0000000000;2.6500000000;FR
189;Péronne Centre;peronne-centre;49.934997;2.938987;FR
190;Péronne la Chapelette;peronne-la-chapelette;49.924488;2.933359;FR
191;Albi Ville;albi-ville;43.922380;2.137958;FR
192;Orléans Centre;orleans-centre;47.907960;1.904666;FR
194;Vendôme;vendome;47.8021498;1.0678728;FR
195;Fréjus;frejus;43.432032;6.732941;FR
196;Fontenay-le-Comte;fontenay-le-comte;46.46785957735252;-0.809592604637146;FR
197;Acheux-Franleu;acheux-franleu;50.0826021;1.6574207;FR
198;St-Hilaire-de-Riez;st-hilaire-de-riez;;;FR
199;St-Hilaire-de-Riez;st-hilaire-de-riez;46.7166736;-1.9496838;FR
200;St-Hilaire-de-Riez Centre;st-hilaire-de-riez-centre;46.718728;-1.944618;FR
201;La Clayette – Baudemont;la-clayette-baudemont;46.2881469;4.2984195;FR
203;Tours;tours;47.389781;0.693703;FR
204;Cambrai;cambrai;50.17662;3.24118;FR
205;Aiguebelle;aiguebelle;45.5437225;6.3067175;FR
207;Agen;agen;44.208311;0.620932;FR
208;Ervy-le-Châtel Halles;ervy-le-chatel-halles;48.0333330000;3.9166670000;FR
209;Fays-la-Chapelle;fays-la-chapelle;48.1333330000;4.0166670000;FR
210;Agonac;agonac;45.2865966;0.7486706;FR
211;Limoges Bénédictins;limoges-benedictins;45.836089;1.267356;FR
212;Modane;modane;45.193365;6.658161;FR
213;Agos;agos;43.0333330000;-0.0666670000;FR
214;Argenton-sur-Creuse;argenton-sur-creuse;46.5833330000;1.5166670000;FR
215;Argenton-sur-Creuse;argenton-sur-creuse;46.592248;1.518305;FR
216;Argenton-sur-Creuse Gare Routière;argenton-sur-creuse-gare-routiere;46.587009;1.503158;FR
217;Roye;roye;49.69805004945369;2.7897226810455322;FR
218;Agay;agay;43.4313701;6.8564997;FR
220;Versailles;versailles;48.7526;2.5735;FR
223;Versailles-Chantiers;versailles-chantiers;48.7958264;2.1358827;FR
224;Villeneuve-au-Chemin;villeneuve-au-chemin;48.082895;3.844281;FR
230;Salvagnac;salvagnac;43.9166670000;1.7000000000;FR
232;Maussac;maussac;45.4833330000;2.1500000000;FR
233;Aix-en-Provence TGV;aix-en-provence-tgv;43.455237;5.317534;FR
234;Moustéru;mousteru;48.5074512;-3.2435052;FR
239;Aillevillers;aillevillers;47.9138876;6.3372988;FR
241;Ailly-sur-Noye;ailly-sur-noye;49.75448;2.36419;FR
246;Ailly-sur-Somme;ailly-sur-somme;49.92838;2.20059;FR
249;Aigues-Vives (Gard);aigues-vives-gard;43.7333330000;4.1666670000;FR
252;Aiserey;aiserey;47.170501;5.1582447;FR
264;Vicq-sur-Breuilh;vicq-sur-breuilh;45.645578;1.384455;FR
265;St-Hilaire-Bonneval;st-hilaire-bonneval;45.7166670000;1.3666670000;FR
266;Boisseuil;boisseuil;45.7666670000;1.3166670000;FR
267;Azay-sur-Indre;azay-sur-indre;47.2000000000;0.9500000000;FR
286;Mouroux;mouroux;48.8139949;3.0423421;FR
292;Alet-les-Bains;alet-les-bains;42.9974445;2.2518325;FR
293;Allassac;allassac;45.2589385;1.4731471;FR
295;Albens;albens;45.785946;5.9483418;FR
302;Pierre-Buffière Ville;pierre-buffiere-ville;45.7000000000;1.3500000000;FR
303;Aix la Marsalouse;aix-la-marsalouse;45.614206266734726;2.3984473943710327;FR
304;La Ferté-sous-Jouarre;la-ferte-sous-jouarre;48.950741;3.125577;FR
311;Merten;merten;49.2500000000;6.6666670000;FR
313;La Ferté-Milon;la-ferte-milon;49.1797269;3.1207223;FR
314;Neuilly-St-Front;neuilly-st-front;49.1871466;3.2710249;FR
315;Oulchy-Breny;oulchy-breny;49.1876743;3.3524421;FR
316;Albi Madeleine;albi-madeleine;43.938011;2.1409629;FR
317;Ambérieu;amberieu;45.954008;5.342388;FR
322;Auxon Église;auxon-eglise;48.092235;3.923863;FR
323;Rehainviller;rehainviller;48.5666670000;6.4666670000;FR
324;St-Pierremont;st-pierremont;48.4333330000;6.5833330000;FR
325;Leintrey;leintrey;48.6166670000;6.7333330000;FR
326;Amenoncourt;amenoncourt;48.626383;6.78441;FR
327;Magnac Bourg;magnac-bourg;45.61815;1.43097;FR
328;Aigues-Mortes;aigues-mortes;43.5709008;4.1912102;FR
329;Meuzac;meuzac;45.5500000000;1.4333330000;FR
335;Orville;orville;47.5500000000;5.2000000000;FR
336;Torcenay;torcenay;47.813425;5.470142;FR
337;Rosoy-sur-Amance;rosoy-sur-amance;47.8333330000;5.5333330000;FR
338;Bize;bize;47.8333330000;5.6333330000;FR
339;Anrosey;anrosey;47.8333330000;5.6666670000;FR
340;Pisseloup;pisseloup;47.8333330000;5.7333330000;FR
341;Bétoncourt-sur-Mance;betoncourt-sur-mance;47.830622;5.759083;FR
342;Vernois-sur-Mance;vernois-sur-mance;47.851944;5.794042;FR
343;Andelot;andelot;46.8594671;5.923584;FR
344;Angers;angers;47.4666670000;-0.5500000000;FR
345;Angers Maître École;angers-maitre-ecole;47.4670899;-0.531894;FR
346;Blondefontaine;blondefontaine;47.8833330000;5.8666670000;FR
347;Angoulême;angouleme;45.653572;0.164608;FR
348;Raincourt;raincourt;47.859879227409714;5.885946750640868;FR
349;Gévigney;gevigney;47.8000000000;5.9333330000;FR
350;Baulay;baulay;47.7833330000;6.0166670000;FR
351;Amoncourt;amoncourt;47.7333330000;6.0666670000;FR
352;Chaux-les-Port;chaux-les-port;47.713834;6.03311;FR
353;Charmoille;charmoille;47.6666670000;6.1000000000;FR
354;Pusey;pusey;47.6500000000;6.1333330000;FR
355;Martigny-les-Gerbonvaux;martigny-les-gerbonvaux;48.4500000000;5.8000000000;FR
356;Autreville;autreville;48.4833330000;5.8500000000;FR
358;Mont-le-Vignoble;mont-le-vignoble;48.6166670000;5.8500000000;FR
359;Hestroff;hestroff;49.2666670000;6.4333330000;FR
360;Vaudreching;vaudreching;49.284483;6.523714;FR
361;Alzing;alzing;49.2833330000;6.5500000000;FR
363;Villette;villette;49.474443;5.541571;FR
364;Colmey – Flabeuville;colmey-flabeuville;49.457202;5.555477;FR
365;Montigny-sur-Chiers;montigny-sur-chiers;49.4833330000;5.6666670000;FR
366;Lexy;lexy;49.5000000000;5.7333330000;FR
367;Ingolsheim;ingolsheim;48.9740200000;7.9359050000;FR
372;Hertzing;hertzing;48.6833330000;6.9500000000;FR
373;Bébing;bebing;48.7000000000;7.0000000000;FR
376;Drouilly;drouilly;48.7666670000;4.5166670000;FR
377;Aiguillon;aiguillon;44.2987224;0.3352388;FR
378;St-Martin-aux-Champs;st-martin-aux-champs;48.8166670000;4.4833330000;FR
379;Bouilly;bouilly;48.2000000000;4.0000000000;FR
380;Chamoy;chamoy;48.1166670000;3.9666670000;FR
381;Jeugny;jeugny;48.128443;4.039581;FR
382;Montigny-les-Monts;montigny-les-monts;48.1000000000;3.9500000000;FR
383;St-Germain Mairie;st-germain-mairie;48.259911;4.007804;FR
384;St-Jean-de-Bonneval;st-jean-de-bonneval;48.1666670000;4.0500000000;FR
385;St-Phal Monument aux morts;st-phal-monument-aux-morts;48.1166670000;4.0000000000;FR
386;Villery;villery;48.165524;4.023086;FR
387;Neuvy-Sautour RN;neuvy-sautour-rn;48.0333330000;3.8000000000;FR
388;Brienon Mairie;brienon-mairie;48.0000000000;3.6166670000;FR
389;St-Lyé;st-lye;48.3666670000;4.0000000000;FR
390;Payns;payns;48.3833330000;3.9666670000;FR
391;Savières;savieres;48.4166670000;3.9500000000;FR
392;St-Mesmin;st-mesmin;48.4500000000;3.9333330000;FR
393;Vallant-St-Georges;vallant-st-georges;48.466168;3.899331;FR
394;Châtres;chatres;48.5000000000;3.8500000000;FR
395;Maizières-La Grande-Paroisse;maizieres-la-grande-paroisse;48.5166670000;3.7833330000;FR
396;Romilly-sur-Seine;romilly-sur-seine;48.514433;3.728887;FR
399;Marnay-sur-Seine;marnay-sur-seine;48.5166670000;3.5500000000;FR
400;Nogent-sur-Seine;nogent-sur-seine;48.49783878;3.49372888;FR
401;Aigueperse;aigueperse;46.0147884;3.1982621;FR
402;Vendeuvre;vendeuvre;48.2400686;4.4672135;FR
403;Bar-sur-Aube;bar-sur-aube;48.2385399;4.7066708;FR
404;St-Florentin Hôtel de Ville;st-florentin-hotel-de-ville;48.0000000000;3.7333330000;FR
405;Laroche-Migennes Hôtel Terminus;laroche-migennes-hotel-terminus;;;FR
406;Foug;foug;48.6792561;5.7912761;FR
407;Fontenoy-sur-Moselle;fontenoy-sur-moselle;48.711721;5.9803654;FR
408;Liverdun;liverdun;48.7493158;6.0617374;FR
409;Champigneulles;champigneulles;48.73499;6.16913;FR
410;Laneuveville-devant-Nancy;laneuveville-devant-nancy;48.65564;6.22792;FR
411;Argèles-Gazost;argeles-gazost;43.1000000000;-0.0500000000;FR
412;Arches;arches;48.1198133;6.5283085;FR
413;Varangéville – St-Nicolas;varangeville-st-nicolas;48.63533929;6.31286037;FR
414;Dombasle-sur-Meurthe;dombasle-sur-meurthe;48.623275;6.343478;FR
415;Rosières-aux-Salines;rosieres-aux-salines;48.605630;6.350457;FR
416;Argelès-sur-Mer;argeles-sur-mer;42.543970;3.022349;FR
417;Marainviller;marainviller;48.5833330000;6.6000000000;FR
419;Embermenil;embermenil;48.6333330000;6.7000000000;FR
421;Einvaux;einvaux;48.5034859;6.3932959;FR
422;Bayon;bayon;48.468046;6.322569;FR
423;Argentan;argentan;48.738545;-0.025291;FR
424;Xermamenil – Lamath;xermamenil-lamath;48.534981;6.457553;FR
425;Arvant;arvant;45.3653797;3.3106747;FR
426;Gerbeviller;gerbeviller;48.5000000000;6.5166670000;FR
427;Moyen;moyen;48.4833330000;6.5666670000;FR
428;Soulosse;soulosse;48.40923;5.739127;FR
429;Magnières;magnieres;48.4500000000;6.5666670000;FR
430;Ascq;ascq;50.6218591;3.1598992;FR
432;Coussey;coussey;48.4166670000;5.6833330000;FR
433;Domremy-la-Pucelle;domremy-la-pucelle;48.4500000000;5.6833330000;FR
434;Auxerre-St-Gervais;auxerre-st-gervais;47.797645;3.585140;FR
435;Aspres-sur-Buëch;aspres-sur-buech;44.519428;5.7545655;FR
436;St-Clément-Laronxe;st-clement-laronxe;48.5312283;6.6081108;FR
437;Chenevières;chenevieres;48.5195062;6.6325613;FR
438;Ménil-Flin;menil-flin;48.5050204;6.6592265;FR
439;Azerailles;azerailles;48.4913355;6.695778;FR
440;Baccarat;baccarat;48.452405;6.743830;FR
441;Bertrichamps;bertrichamps;48.4283359;6.7912343;FR
442;Thiaville;thiaville;48.4139874;6.8102635;FR
443;Houdemont;houdemont;48.645478;6.1797255;FR
444;Ludres;ludres;48.6219545;6.1709118;FR
445;Messein;messein;48.6128788;6.1378364;FR
446;Neuves-Maisons;neuves-maisons;48.6147666;6.1078904;FR
447;Pont-St-Vincent;pont-st-vincent;48.6023732;6.1031502;FR
448;Aixe-sur-Vienne;aixe-sur-vienne;45.7965002;1.1456892;FR
449;Adamswiller;adamswiller;48.903757656798746;7.201194763183593;FR
450;Bainville;bainville;48.5863794;6.099327;FR
452;Xeuilley;xeuilley;48.5697134;6.1022334;FR
453;Pierreville;pierreville;48.5488838;6.1241409;FR
454;Pulligny – Autrey;pulligny-autrey;48.5360716;6.1374765;FR
455;Ceintrey;ceintrey;48.523865;6.1572868;FR
456;Tantonville;tantonville;48.4838433;6.129105;FR
457;Vézelise;vezelise;48.4805518;6.1006508;FR
458;Praye-sous-Vaudémont;praye-sous-vaudemont;48.4327891;6.1006981;FR
459;Diarville;diarville;48.3975653;6.1264922;FR
460;Domgermain;domgermain;48.6500000000;5.8166670000;FR
461;Charmes-la-Côte;charmes-la-cote;48.6333330000;5.8333330000;FR
462;Blenod-les-Toul;blenod-les-toul;48.6000000000;5.8333330000;FR
463;Bulligny – Crézilles;bulligny-crezilles;48.576646;5.848966;FR
464;Barisey-la-Côte;barisey-la-cote;48.5500000000;5.8500000000;FR
465;Pompey;pompey;48.77304;6.13061;FR
466;Marbache;marbache;48.8010405;6.1091755;FR
467;Belleville;belleville;48.8195721;6.1018641;FR
468;Dieulouard;dieulouard;48.843367;6.071489;FR
469;Pont-à-Mousson;pont-a-mousson;48.900580;6.050842;FR
470;Luzy-sur-Marne;luzy-sur-marne;48.0500000000;5.1833330000;FR
471;Chaudenay;chaudenay;47.8333330000;5.5000000000;FR
472;Hortes;hortes;47.838739;5.553454;FR
473;Charmoy – Fayl-Billot;charmoy-fayl-billot;47.809308;5.604145;FR
474;Auch;auch;43.647488;0.596661;FR
475;Laferté-sur-Amance;laferte-sur-amance;47.8333330000;5.7000000000;FR
476;Vitrey – Vernois;vitrey-vernois;47.830406;5.779407;FR
477;Barges;barges;47.8666670000;5.8500000000;FR
479;Bologne;bologne;48.1986877;5.1342228;FR
480;Vignory;vignory;48.2701366;5.1241594;FR
481;Aurillac;aurillac;44.921092;2.435655;FR
482;Froncles;froncles;48.2964154;5.1419387;FR
483;Gudmont;gudmont;48.3382279;5.1408271;FR
484;Donjeux;donjeux;48.3658544;5.1482245;FR
485;Avignon TGV;avignon-tgv;43.921586;4.786079;FR
486;Avail;avail;46.960187;2.05319;FR
487;Damblain;damblain;48.0937645;5.6563504;FR
488;Châtillon-sur-Seine;chatillon-sur-seine;47.86126131518925;4.574829339981079;FR
489;Avignon;avignon;43.9500000000;4.8166670000;FR
493;Aguilcourt – Variscourt;aguilcourt-variscourt;49.408017;3.973137;FR
494;Prauthoy;prauthoy;47.6666670000;5.2833330000;FR
495;Vaux-sous-Aubigny;vaux-sous-aubigny;47.657894;5.291365;FR
497;Selongey;selongey;47.58704;5.18604;FR
499;Maatz;maatz;47.7000000000;5.4500000000;FR
500;Champlitte;champlitte;47.6166670000;5.5166670000;FR
501;Neuvelle-lès-Champlitte;neuvelle-les-champlitte;47.5833330000;5.5500000000;FR
502;Oyrières;oyrieres;47.5333330000;5.5666670000;FR
503;Chargey-les-Gray;chargey-les-gray;47.4833330000;5.5833330000;FR
504;Til-Châtel;til-chatel;47.514121;5.169067;FR
505;Velles;velles;47.833292;5.723971;FR
506;Vraincourt-Viéville;vraincourt-vieville;48.2366981;5.1239383;FR
507;Le Pailly;le-pailly;47.8000000000;5.4166670000;FR
508;Rivières-le-Bois;rivieres-le-bois;47.7333330000;5.4333330000;FR
509;Grandchamp;grandchamp;47.7166670000;5.4500000000;FR
510;Leffond;leffond;47.6666670000;5.4666670000;FR
512;Le Martoulet;le-martoulet;45.577772;1.471192;FR
513;Coublanc;coublanc;47.7000000000;5.4666670000;FR
514;Écuelle;ecuelle;47.5500000000;5.5500000000;FR
515;Corgirnon;corgirnon;47.8000000000;5.5000000000;FR
516;Rougeux;rougeux;47.8166670000;5.5833330000;FR
519;Beausoleil;beausoleil;43.7500000000;7.4333330000;FR
520;Roville-aux-Chênes;roville-aux-chenes;48.3833330000;6.6000000000;FR
521;Docelles – Cheniménil;docelles-chenimenil;48.1436134;6.6104793;FR
522;Lépanges;lepanges;48.1727165;6.6722884;FR
523;Charmes;charmes;48.378483;6.301537;FR
524;Vincey;vincey;48.3436471;6.3355129;FR
525;Châtel – Nomexy;chatel-nomexy;48.307156;6.387807;FR
526;Igney;igney;48.2709639;6.3995463;FR
527;Thaon;thaon;48.244650;6.416384;FR
528;Raves – Ban-de-Laveline;raves-ban-de-laveline;48.265723;7.0378799;FR
529;Xertigny;xertigny;48.0530255;6.3767687;FR
530;Bains-les-Bains;bains-les-bains;47.9811282;6.2952683;FR
531;Laveline-devant-Bruyères;laveline-devant-bruyeres;48.185596;6.7512466;FR
532;Biffontaine;biffontaine;48.2059398;6.8071811;FR
533;Corcieux – Vanémont;corcieux-vanemont;48.1982842;6.8772915;FR
535;Mirecourt;mirecourt;48.299243;6.129651;FR
536;Contrexéville;contrexeville;48.1796129;5.890633;FR
537;Martigny-les-Bains;martigny-les-bains;48.1086889;5.8255764;FR
538;Lamarche;lamarche;48.0901299;5.7604385;FR
539;Rozières-sur-Mouzon;rozieres-sur-mouzon;48.1208921;5.7054886;FR
540;Provenchères-sur-Fave;provencheres-sur-fave;48.3046291;7.0854904;FR
541;Colroy – Lubine;colroy-lubine;48.3145855;7.1317294;FR
542;Pouxeux;pouxeux;48.1039421;6.5810266;FR
543;Éloyes;eloyes;48.087067;6.6001593;FR
544;Vecoux;vecoux;47.980175;6.636951;FR
545;St-Léonard;st-leonard-fr;48.2170818;6.9415509;FR
546;Rupt-sur-Moselle;rupt-sur-moselle;47.9333330000;6.6666670000;FR
547;Ferdrupt;ferdrupt;47.9000000000;6.7166670000;FR
548;Ramonchamp;ramonchamp;47.9000000000;6.7500000000;FR
549;Le Thillot;le-thillot;47.8833330000;6.7666670000;FR
550;Fresse;fresse;47.8666670000;6.7833330000;FR
551;St-Maurice-sur-Moselle;st-maurice-sur-moselle;47.8666670000;6.8333330000;FR
552;Bussang;bussang;47.8833330000;6.8500000000;FR
553;Raon-l’Étape;raon-letape;48.404002;6.837302;FR
554;Vagney;vagney;48.005974;6.710573;FR
555;Étival-Clairefontaine;etival-clairefontaine;48.3671987;6.8769607;FR
556;Zainvillers;zainvillers;47.996347;6.713764;FR
557;Thiéfosse;thiefosse;47.969892;6.73061;FR
558;Saulxures-sur-Moselotte;saulxures-sur-moselotte;47.9500000000;6.7666670000;FR
559;St-Michel-sur-Meurthe;st-michel-sur-meurthe;48.3269843;6.8882777;FR
560;Cornimont;cornimont;47.9666670000;6.8333330000;FR
561;Deinvillers;deinvillers;48.4166670000;6.5500000000;FR
563;Rambervillers;rambervillers;48.3500000000;6.6333330000;FR
564;Jeanmenil;jeanmenil;48.3333330000;6.6833330000;FR
566;Autrey;autrey;48.3000000000;6.6833330000;FR
567;Dompaire;dompaire;48.2166670000;6.2166670000;FR
568;Brouvelieures;brouvelieures;48.2333330000;6.7333330000;FR
572;Bocquegney;bocquegney;48.2166670000;6.3000000000;FR
574;Racecourt;racecourt;48.2500000000;6.1833330000;FR
575;Vélotte-et-Tatignecourt;velotte-et-tatignecourt;48.261475;6.164487;FR
579;Bagnoles-de-l’Orne Office de Tourisme;bagnoles-de-lorne-office-de-tourisme;48.55437;-0.410609;FR
580;St-Nabord;st-nabord;48.0461722;6.5818945;FR
581;Hielle – Rupt;hielle-rupt;47.968714;6.635522;FR
582;Maxonchamp;maxonchamp;47.945783;6.63269;FR
583;Dommartin;dommartin;48.0000000000;6.6500000000;FR
584;Ste-Marguerite – Remomeix;ste-marguerite-remomeix;48.260342;6.980995;FR
585;Blanchifontaine;blanchifontaine;48.339142;6.656682;FR
586;Frémifontaine;fremifontaine;48.2666670000;6.6833330000;FR
587;La Bresse;la-bresse;48.0000000000;6.8833330000;FR
588;Laneuveville-aux-Bois;laneuveville-aux-bois;48.6166670000;6.6500000000;FR
589;Vallois;vallois;48.468442;6.564112;FR
591;Greux;greux;48.4500000000;5.6833330000;FR
592;Goussaincourt;goussaincourt;48.48384912581334;5.693310499191284;FR
593;Burey-la-Côte;burey-la-cote;48.5000000000;5.7000000000;FR
595;Taillancourt;taillancourt;;;FR
598;Montbré;montbre;49.1942075;4.0388482;FR
599;Trois-Puits;trois-puits;49.2067481;4.0384678;FR
600;Muizon;muizon;49.2781012;3.8915287;FR
601;Jonchery-sur-Vesle;jonchery-sur-vesle;49.290057;3.819422;FR
602;Breuil-Romain;breuil-romain;49.3084141;3.7665322;FR
603;Fismes;fismes;49.310665;3.682130;FR
604;Bazoches;bazoches;49.30518;3.6163588;FR
605;Mont-Notre-Dame;mont-notre-dame;49.2967797;3.5764545;FR
606;Fère-en-Tardenois;fere-en-tardenois;49.2085631;3.5042685;FR
607;Dormans;dormans;49.0791611;3.641709;FR
608;Aÿ;ay;49.0487318;4.0015644;FR
609;Avenay;avenay;49.0647826;4.043689;FR
610;Germaine;germaine;49.1277634;4.0228976;FR
611;Rilly-la-Montagne;rilly-la-montagne;49.1664524;4.0408608;FR
612;Val-de-Vesle;val-de-vesle;49.17792;4.22221;FR
613;Prunay;prunay;49.1988;4.18364;FR
614;Sillery;sillery;49.20324;4.14427;FR
615;Sept-Saulx;sept-saulx;49.1511332;4.2569742;FR
616;Mairy-sur-Marne;mairy-sur-marne;48.8666670000;4.4166670000;FR
617;Courcy-Brimont;courcy-brimont;49.3296003;4.0134623;FR
618;Loivre;loivre;49.3466786;3.9906699;FR
619;Guignicourt;guignicourt;49.434862;3.961334;FR
620;Amifontaine;amifontaine;49.4847322;3.9105811;FR
621;St-Erme;st-erme;49.5269865;3.8576502;FR
622;Coucy-lès-Eppes;coucy-les-eppes;49.556282;3.7748209;FR
623;Nouzonville;nouzonville;49.8120125;4.7428155;FR
624;Joigny-sur-Meuse;joigny-sur-meuse;49.8336807;4.7672389;FR
625;Bogny-sur-Meuse;bogny-sur-meuse;49.8583117;4.7632317;FR
626;Monthermé;montherme;49.865621;4.740530;FR
627;Deville;deville;49.8796028;4.7072062;FR
628;Laifour;laifour;49.911256;4.6923484;FR
629;Revin;revin;49.938756;4.642536;FR
630;Fumay;fumay;49.986048;4.692600;FR
631;Haybes;haybes;50.0116888;4.7045378;FR
632;Vireux-Molhain;vireux-molhain;50.0827968;4.7233909;FR
633;Aubrives;aubrives;50.1044507;4.7616512;FR
634;Givet;givet;50.14025067;4.81798595;FR
635;Lumes;lumes;49.7327973;4.7833571;FR
636;Nouvion-sur-Meuse;nouvion-sur-meuse;49.6973135;4.794973;FR
637;Vrigne-Meuse;vrigne-meuse;49.7010822;4.8438063;FR
638;Donchery;donchery;49.6981267;4.8747529;FR
639;Amagne – Lucquy;amagne-lucquy;49.5238187;4.4738775;FR
640;Rethel;rethel;49.504393;4.369566;FR
641;Pont-Maugis;pont-maugis;49.6666670000;4.9500000000;FR
642;Bazeilles;bazeilles;49.6666670000;4.9833330000;FR
643;Douzy;douzy;49.6666670000;5.0500000000;FR
644;Pouru-St-Rémy;pouru-st-remy;49.6833330000;5.0833330000;FR
645;Sachy;sachy;49.6666670000;5.1333330000;FR
646;Carignan;carignan;49.6285736;5.1684754;FR
647;Blagny;blagny;49.6166670000;5.1833330000;FR
648;Linay;linay;49.6166670000;5.2166670000;FR
649;Margut Fromy;margut-fromy;49.590323;5.254995;FR
650;Liart;liart;49.7700597;4.3355138;FR
651;Beauchastel;beauchastel;44.8333330000;4.8000000000;FR
652;Remilly-Aillicourt;remilly-aillicourt;49.6518;4.993642;FR
653;Bénestroff;benestroff;48.90656;6.75266;FR
654;Bagnoles-de-l’Orne;bagnoles-de-lorne;;;FR
656;Anchamps;anchamps;49.9307448;4.6702434;FR
657;Fépin;fepin;50.0234644;4.7266156;FR
659;Brest;brest;48.388110;-4.478903;FR
660;Wadelincourt;wadelincourt;49.682651;4.937918;FR
661;La Ferté-sur-Chiers;la-ferte-sur-chiers;49.5666670000;5.2333330000;FR
664;Songy;songy;48.801708;4.495397;FR
665;Loisy-sur-Marne;loisy-sur-marne;48.7666670000;4.5500000000;FR
666;Pringy (Marne);pringy-marne;48.7833330000;4.5166670000;FR
667;Vitry-le-François;vitry-le-francois;48.718142;4.587581;FR
668;Mourmelon-le-Petit;mourmelon-le-petit;49.1313076;4.3180982;FR
669;Uxegney;uxegney;48.193876;6.370727;FR
670;Bouy;bouy;49.09131;4.35292;FR
671;Darnieulles;darnieulles;48.2000000000;6.3500000000;FR
672;Mattaincourt;mattaincourt;48.2833330000;6.1333330000;FR
673;St-Âme;st-ame;48.0333330000;6.6666670000;FR
674;St-Âme – Le Syndicat;st-ame-le-syndicat;48.024474;6.686994;FR
677;Suippes;suippes;49.120151;4.543885;FR
678;Ste-Ménéhould;ste-menehould;49.1000000000;4.8666670000;FR
679;St-Dizier;st-dizier;48.642404;4.947855;FR
680;Revigny;revigny;48.8240449;4.9855736;FR
681;Nançois-Tronville;nancois-tronville;48.7180423;5.2912016;FR
682;Fronville;fronville;48.4001829;5.1564405;FR
683;Joinville;joinville;48.4442977;5.143503;FR
685;Curel;curel;48.5000000000;5.1333330000;FR
686;Chevillon;chevillon;48.5245505;5.1117843;FR
687;Bayard;bayard;48.5520296;5.0754439;FR
688;Eurville;eurville;48.5828713;5.0449583;FR
690;Villiers-en-Lieu;villiers-en-lieu;48.661135;4.896801;FR
691;St-Eulien;st-eulien;48.6833330000;4.8833330000;FR
692;Commercy;commercy;48.765749;5.588610;FR
693;Berthelming;berthelming;48.8096475;7.0087859;FR
694;Bouin;bouin;46.9666670000;-2.0000000000;FR
695;Les Islettes;les-islettes;49.10635;5.00184;FR
696;Clermont-en-Argonne;clermont-en-argonne;49.10645;5.06506;FR
697;Étain;etain;49.2074907;5.6398079;FR
701;Vaucouleurs;vaucouleurs;;;FR
702;Neuville-les-Vaucouleurs;neuville-les-vaucouleurs;48.5833330000;5.6666670000;FR
703;Burey-en-Vaux;burey-en-vaux;48.5666670000;5.6666670000;FR
704;Maxey-sur-Vaise;maxey-sur-vaise;48.5333330000;5.6666670000;FR
705;Hasenrain;hasenrain;47.736281;7.3313559;FR
706;Brunstatt;brunstatt;47.7166670000;7.3166670000;FR
707;Flaxlanden;flaxlanden;47.6986924;7.3044703;FR
708;Beillant;beillant;45.7007999;-0.5265079;FR
709;Blesme-Haussignemont;blesme-haussignemont;48.72125652410445;4.752992391586304;FR
710;Tagolsheim;tagolsheim;47.6549682;7.2641437;FR
711;Walheim;walheim;47.6416406;7.2633202;FR
712;Ballersdorf;ballersdorf;47.6333330000;7.1666670000;FR
713;Biarritz;biarritz;43.459397;-1.545915;FR
714;Valdieu;valdieu;47.631315550149495;7.056044340133667;FR
715;Graffenwald;graffenwald;47.7808232;7.2247908;FR
716;St-André (Haut Rhin);st-andre-haut-rhin;47.79097;7.155053;FR
717;Colmar Mésanges;colmar-mesanges;48.0860048;7.3336703;FR
718;Colmar St-Joseph;colmar-st-joseph;48.0816399;7.3453397;FR
719;St-Gilles;st-gilles;48.0758611;7.2609746;FR
723;Mulhouse – Dornach;mulhouse-dornach;47.747130;7.308477;FR
724;Rixheim;rixheim;47.748960;7.406404;FR
725;Habsheim;habsheim;47.737691;7.417979;FR
726;Sierentz;sierentz;47.656047;7.459142;FR
727;Bartenheim;bartenheim;47.6349313;7.4872561;FR
728;Zillisheim;zillisheim;47.6943143;7.2945376;FR
729;Illfurth;illfurth;47.6764322;7.2685712;FR
730;Altkirch;altkirch;47.6270174;7.2392493;FR
731;Dannemarie;dannemarie;47.6275771;7.124907;FR
732;Ribeauvillé;ribeauville;48.1975900000;7.2215800000;FR
735;Herrlisheim-près-Colmar;herrlisheim-pres-colmar;48.0166417;7.3206381;FR
736;Rouffach;rouffach;47.9602481;7.312455;FR
737;Logelbach;logelbach;48.087299;7.3206082;FR
738;Turckheim;turckheim;48.0856288;7.279466;FR
739;Walbach;walbach;48.0580062;7.2334758;FR
740;Wihr-au-Val – Soultzbach;wihr-au-val-soultzbach;48.0460522;7.2095351;FR
741;Gunsbach – Griesbach;gunsbach-griesbach;48.0414908;7.1748407;FR
742;Ranspach;ranspach;47.8815954;7.0123184;FR
743;Cernay;cernay;47.80200;7.17370;FR
744;Burnhaupt;burnhaupt;47.7333330000;7.1500000000;FR
745;Guewenheim;guewenheim;47.7528280000;7.0925330000;FR
746;Sentheim;sentheim;47.75252549026408;7.057535648345947;FR
747;Lauw;lauw;47.7562910000;7.0183750000;FR
748;Masevaux;masevaux;47.7767130000;6.9968320000;FR
749;Sickert;sickert;47.7838080000;6.9784640000;FR
750;Niederbruck;niederbruck;47.7833330000;6.9666670000;FR
751;Kirchberg;kirchberg;47.7975320000;6.9579510000;FR
752;Oberbruck;oberbruck;47.8076780000;6.9435310000;FR
753;Sewen;sewen;47.8071600000;6.9056800000;FR
754;Luttenbach-près-Munster;luttenbach-pres-munster;48.0352559;7.1186307;FR
755;Vieux-Thann;vieux-thann;47.8058505;7.1194904;FR
756;Bitschwiller;bitschwiller;47.8273719;7.078514;FR
757;Willer-sur-Thur;willer-sur-thur;47.8425494;7.0693196;FR
758;Moosch;moosch;47.8607454;7.0507631;FR
759;St-Amarin;st-amarin;47.8728596;7.0287447;FR
760;Wesserling;wesserling;47.8899651;6.997519;FR
761;Fellering;fellering;47.8975893;6.9871347;FR
762;Oderen;oderen;47.9118756;6.9734829;FR
763;Kruth;kruth;47.92396;6.9690938;FR
764;Breitenbach;breitenbach;48.0285326;7.1040522;FR
765;Richwiller;richwiller;47.7833330000;7.2833330000;FR
766;Wittelsheim;wittelsheim;47.81733322335348;7.2643232345581055;FR
767;Staffelfelden;staffelfelden;47.8279612;7.2651657;FR
768;Bollwiller;bollwiller;47.8569694;7.2672555;FR
769;Raedersheim;raedersheim;47.8869059;7.2840467;FR
770;Merxheim;merxheim;47.9126413;7.3022795;FR
771;Muhlbach-sur-Munster;muhlbach-sur-munster;48.0246077;7.0875666;FR
772;Malmerspach;malmerspach;47.8666670000;7.0333330000;FR
773;Metzéral;metzeral;48.0133301;7.0733383;FR
774;Sundhoffen;sundhoffen;;;FR
775;Bas-Evette;bas-evette;47.6810089;6.8068494;FR
778;Bort-les-Orgues;bort-les-orgues;45.40645751045886;2.502157688140869;FR
779;Trois-Chênes;trois-chenes;47.6480822;6.8462281;FR
780;Chèvremont;chevremont-gare;47.6216292;6.9214733;FR
781;Petit-Croix;petit-croix;47.6101045;6.9947414;FR
782;Montreux-Vieux;montreux-vieux;47.6178576;7.0253947;FR
783;Blainville – Damelevières;blainville-damelevieres;48.564971;6.386953;FR
784;Héricourt;hericourt;47.5729701;6.7691977;FR
785;Voujeaucourt;voujeaucourt;47.4789729;6.7699667;FR
786;Bourg-Madame;bourg-madame;42.4324069;1.9486704;FR
787;Colombier-Fontaine;colombier-fontaine;47.4554849;6.6890071;FR
789;L’Isle-sur-le-Doubs;lisle-sur-le-doubs;47.4473777;6.5812614;FR
792;Clerval;clerval;47.3966577;6.4920574;FR
793;Port-sur-Saône;port-sur-saone;47.6833330000;6.0500000000;FR
795;Grattery;grattery;47.6666670000;6.0833330000;FR
796;Noidans-lès-Vesoul;noidans-les-vesoul;47.6166670000;6.1333330000;FR
800;Montureux-lès-Baulay;montureux-les-baulay;47.8166670000;5.9833330000;FR
801;Ronchamp;ronchamp;47.6990308;6.6232791;FR
802;Champagney;champagney;47.7031399;6.7012773;FR
803;Jussey;jussey;47.8166670000;5.9000000000;FR
804;Masseret Ville;masseret-ville;45.5333330000;1.5166670000;FR
805;Barberey Route de Méry;barberey-route-de-mery;48.3500000000;4.0166670000;FR
807;Béning;bening;49.1379541;6.8282982;FR
809;Mont-le-Vernois;mont-le-vernois;47.6000000000;6.0666670000;FR
810;Luxeuil-les-Bains;luxeuil-les-bains;47.8148606;6.3726593;FR
812;Loupershouse;loupershouse;49.081102;6.914979;FR
813;Walygator Parc;walygator-parc;49.22492;6.15946;FR
814;Maizières-lès-Metz;maizieres-les-metz;49.2155349;6.1588762;FR
815;Uckange;uckange;49.3032605;6.1567735;FR
816;Knutange – Nilvange;knutange-nilvange;49.340801;6.047762;FR
817;Hayange;hayange;49.33053;6.07245;FR
818;Aubusson Gare Routière;aubusson-gare-routiere;45.95500608979646;2.1708834171295166;FR
819;Metzeresche;metzeresche;49.3000000000;6.3166670000;FR
820;Yutz;yutz;49.361354;6.2093949;FR
821;Kuntzig;kuntzig;49.349918;6.2345596;FR
822;Distroff;distroff;49.3352322;6.2603013;FR
823;Metzervisse;metzervisse;49.3179579;6.2838554;FR
824;Kédange;kedange;49.3056643;6.3324034;FR
825;Hombourg-Budange;hombourg-budange;49.2823957;6.3507488;FR
827;Bordeaux;bordeaux;44.83773065393117;-0.577431321144104;FR
828;Bordeaux St-Jean;bordeaux-st-jean;44.825873;-0.556697;FR
829;Boé;boe;44.1666670000;0.6333330000;FR
830;Ébersviller;ebersviller;49.2747715;6.4111622;FR
831;Anzeling;anzeling;49.2620718;6.4602649;FR
832;Freistroff;freistroff;49.2780593;6.4926709;FR
833;Remelfang;remelfang;49.2666670000;6.5166670000;FR
834;Basse-Ham;basse-ham;49.3805708;6.2348709;FR
835;Koenigsmacker;koenigsmacker;49.3965538;6.2735503;FR
836;Malling;malling;49.42152;6.302207;FR
837;Sierck-les-Bains;sierck-les-bains;49.4440155;6.3500946;FR
838;Apach;apach;49.4439732;6.3500923;FR
839;Homécourt;homecourt;49.2182988;5.9991714;FR
840;Belfort-Ville;belfort-ville;47.633284;6.853956;FR
841;Jœuf;joeuf;49.2250083;6.0177021;FR
842;Moyeuvre-Grande;moyeuvre-grande;49.246713;6.043226;FR
843;Bourges;bourges;47.094145;2.394255;FR
844;Boves;boves;49.8462355;2.3981165;FR
845;Rombas – Clouange;rombas-clouange;49.2560553;6.0990538;FR
846;Gandrange – Amnéville;gandrange-amneville;49.2608222;6.1358897;FR
849;Woippy;woippy;49.1487965;6.155621;FR
851;Vatimont;vatimont;48.979731;6.467163;FR
852;Lucy;lucy;48.9500000000;6.4666670000;FR
853;Chenois;chenois;48.9666670000;6.5000000000;FR
854;Holacourt;holacourt;48.9666670000;6.5166670000;FR
855;Arraincourt;arraincourt;48.9666670000;6.5333330000;FR
856;Racrange;racrange;48.9166670000;6.6666670000;FR
857;Bermering;bermering;48.9333330000;6.7000000000;FR
858;Marimont-lès-Bénestroff;marimont-les-benestroff;48.8898910000;6.7854310000;FR
859;Peltre;peltre;49.073877;6.2220476;FR
860;Courcelles-sur-Nied;courcelles-sur-nied;49.0634035;6.3109926;FR
861;Sanry-sur-Nied;sanry-sur-nied;49.0445991;6.3399775;FR
862;Baudrecourt;baudrecourt;48.9666670000;6.4500000000;FR
863;Lesse;lesse;48.9666670000;6.5166670000;FR
864;Brulange;brulange;48.969861;6.549693;FR
865;Morhange;morhange;48.9366239;6.6590266;FR
866;Ars-sur-Moselle;ars-sur-moselle;49.0744745;6.0776461;FR
867;Ancy-sur-Moselle;ancy-sur-moselle;49.0575093;6.0627661;FR
868;Pagny-sur-Moselle;pagny-sur-moselle;48.9852003;6.0250346;FR
869;Vandières;vandieres;48.9521683;6.0392275;FR
870;Baroncourt;baroncourt;49.2845332;5.6997387;FR
871;Hatrize;hatrize;49.1934741;5.9071141;FR
872;Valleroy – Moineville;valleroy-moineville;49.2056957;5.9360165;FR
873;Bourges Gare Routière;bourges-gare-routiere;47.0833330000;2.4000000000;FR
874;Baronville;baronville;48.9333330000;6.6000000000;FR
875;Vahl-les-Bénestroff;vahl-les-benestroff;48.913148;6.785372;FR
876;Hargarten – Falck;hargarten-falck;49.221756;6.63687;FR
877;Teterchen;teterchen;49.232534;6.560606;FR
878;Brettnach;brettnach;49.2500000000;6.5666670000;FR
879;Bouzonville;bouzonville;49.2899739;6.5293736;FR
880;Hombourg-Budange Haut;hombourg-budange-haut;49.1261085;6.7742703;FR
881;St-Avold;st-avold;49.085873;6.7206141;FR
882;Teting;teting;49.051605;6.6646267;FR
883;Faulquemont;faulquemont;49.0453391;6.6039774;FR
884;Herny;herny;49.0036084;6.4769285;FR
887;Breil-sur-Roya;breil-sur-roya;43.944039;7.5163276;FR
888;Bressuire;bressuire;46.8384462;-0.4963269;FR
890;Theding;theding;49.126686;6.895238;FR
891;Farébersviller;farebersviller;49.1181603;6.8618926;FR
892;Farschviller;farschviller;49.0878773;6.9080815;FR
893;Diebling;diebling;49.1166670000;6.9333330000;FR
894;Hundling;hundling;49.1066949;6.9775394;FR
895;Metzing;metzing;49.1000000000;6.9666670000;FR
896;Ippling;ippling;49.1000000000;7.0000000000;FR
898;Welferding;welferding;49.11216;7.046608;FR
899;Rémelfing;remelfing;49.091627;7.0915336;FR
900;Sarreinsming;sarreinsming;49.086306;7.1120387;FR
901;Zetting;zetting;49.0783736;7.13454;FR
902;Wittring;wittring;49.0559404;7.1410655;FR
903;Herbitzheim;herbitzheim;49.0138973;7.0801596;FR
904;Ravezies;ravezies;44.86645087819083;-0.5769538879394531;FR
905;Boussens;boussens;43.179617;0.972543;FR
906;Woelfling-lès-Sarreguemines;woelfling-les-sarreguemines;49.094747;7.190609;FR
907;Rohrbach-lès-Bitche;rohrbach-les-bitche;49.05535;7.26433;FR
908;Petit-Réderching;petit-rederching;49.0493205;7.2997305;FR
909;Busigny;busigny;50.0397236;3.4461174;FR
910;Enchenberg;enchenberg;49.01614;7.33372;FR
911;Lemberg;lemberg;49.00075;7.37962;FR
912;Bréauté – Beuzeville;breaute-beuzeville;49.603396;0.417489;FR
913;Bitche;bitche;49.04838;7.4321;FR
914;Bitche Camp;bitche-camp;49.04875093582687;7.432331442832946;FR
916;Ebring;ebring;49.121311;6.914583;FR
917;Montmédy;montmedy;49.5228775;5.3716718;FR
918;Charency-Vezin;charency-vezin;49.4833330000;5.5166670000;FR
919;Audun-le-Roman;audun-le-roman;49.36682;5.89139;FR
920;Fontoy;fontoy;49.3500000000;6.0000000000;FR
921;Réhon;rehon;49.5000000000;5.7500000000;FR
922;Cons-la-Grandville;cons-la-grandville;49.4833330000;5.7000000000;FR
923;La Roche-sous-Montigny;la-roche-sous-montigny;49.474003;5.663258;FR
924;Viviers-sur-Chiers;viviers-sur-chiers;49.470344;5.630528;FR
927;Gros-Rederching;gros-rederching;49.0666670000;7.2166670000;FR
928;Destry;destry;48.9500000000;6.5833330000;FR
929;Mundolsheim;mundolsheim;48.6447732;7.721389;FR
930;Busseau-sur-Creuse;busseau-sur-creuse;46.1230257;2.0229244;FR
931;Stephansfeld;stephansfeld;48.7175872;7.7045946;FR
932;Bueil;bueil;48.9253816;1.4435896;FR
933;Brumath;brumath;48.7331082;7.7004016;FR
934;Schwindratzheim;schwindratzheim;48.7536468;7.6005468;FR
935;Hochfelden;hochfelden;48.7554199;7.572355;FR
936;Wilwisheim;wilwisheim;48.745831;7.5077599;FR
937;Dettwiller;dettwiller;48.7518969;7.4652459;FR
938;Strasbourg Roethig;strasbourg-roethig;48.5632897;7.6950455;FR
939;Zornhoff – Monswiller;zornhoff-monswiller;48.75265914104226;7.383874654769897;FR
940;Graffenstaden;graffenstaden;48.5324375;7.6897861;FR
941;Geispolsheim;geispolsheim;48.5190515;7.6843578;FR
942;Fegersheim – Lipsheim;fegersheim-lipsheim;48.4905892;7.6724806;FR
943;Limersheim;limersheim;48.4617328;7.6603581;FR
944;Bischheim;bischheim;48.6118352;7.7422165;FR
945;Beuvrages;beuvrages;50.3894892;3.5061396;FR
946;La Wantzenau;la-wantzenau;48.6651895;7.8247832;FR
947;Kilstett;kilstett;48.6793065;7.8549031;FR
948;Gambsheim;gambsheim;48.6948699;7.8791884;FR
949;Herrlisheim;herrlisheim;48.7279056;7.9102594;FR
950;Drusenheim;drusenheim;48.7659128;7.9478463;FR
951;Bruyères;bruyeres;48.204895;6.7187638;FR
952;Buzy-en-Béarn;buzy-en-bearn;43.1482723;-0.4558864;FR
953;Beauvais;beauvais;49.42648;2.08869;FR
954;Sessenheim;sessenheim;48.7964628;7.9893194;FR
955;Rountzenheim;rountzenheim;48.820435;8.0119078;FR
956;Roeschwoog;roeschwoog;48.8334661;8.0298738;FR
957;Brive-la-Gaillarde;brive-la-gaillarde;45.152618;1.528655;FR
958;Roppenheim;roppenheim;48.8510962;8.0623108;FR
960;Seltz;seltz;48.8965635;8.0986724;FR
961;Munchhausen;munchhausen;48.9237982;8.1409912;FR
962;Mothern;mothern;48.9347327;8.1615803;FR
963;Lauterbourg;lauterbourg;48.9676973;8.1826817;FR
964;Hattmatt;hattmatt;48.7906370000;7.4214360000;FR
965;Dossenheim-sur-Zinsel;dossenheim-sur-zinsel;48.8059020000;7.4027250000;FR
966;Neuwiller-les-Saverne;neuwiller-les-saverne;48.8250620000;7.4051280000;FR
967;Uberach;uberach;48.8491;7.631374;FR
970;Kaltenhouse;kaltenhouse;48.8000000000;7.8333330000;FR
971;Volgelsheim;volgelsheim;;;FR
973;Neubourg;neubourg;48.838537;7.679943;FR
974;Pfaffenhoffen;pfaffenhoffen;48.8500000000;7.6166670000;FR
975;Bouxwiller;bouxwiller;48.82655254803982;7.478808760643005;FR
977;Gundershoffen;gundershoffen;48.905261;7.6535345;FR
978;Reichshoffen Ville;reichshoffen-ville;48.9310582;7.658132;FR
979;Niederbronn;niederbronn;48.9523989;7.6341348;FR
980;Philippsbourg;philippsbourg;48.9833330000;7.5666670000;FR
981;Bannstein;bannstein;49.003139;7.502855;FR
982;Eguelshardt;eguelshardt;49.0166670000;7.5000000000;FR
983;Walbourg;walbourg;48.8862164;7.8092705;FR
984;Hoelschloch;hoelschloch;48.9163252;7.8314949;FR
985;Soultz-sous-Forêts;soultz-sous-forets;48.9347687;7.8827184;FR
986;Hoffen;hoffen;48.9312475;7.933587;FR
987;Hunspach;hunspach;48.9616379;7.9537409;FR
988;Riedseltz;riedseltz;48.991063;7.962988;FR
989;Wissembourg;wissembourg;49.0318895;7.9501435;FR
991;Marienthal;marienthal;48.781863;7.8231894;FR
992;Bischwiller;bischwiller;48.765753;7.8516536;FR
993;Kurtzenhouse;kurtzenhouse;48.741862;7.8130449;FR
994;Weyersheim;weyersheim;48.7177903;7.7971027;FR
995;Hoerdt;hoerdt;48.7029518;7.7794059;FR
996;St-Lactensin – Tesseau;st-lactensin-tesseau;46.867446;1.473233;FR
997;Wimmenau;wimmenau;48.911413;7.427948;FR
998;Ingwiller;ingwiller;48.8723277;7.4771550;FR
999;Menchhoffen;menchhoffen;48.8592940000;7.4961950000;FR
1000;Bretenoux – Biars;bretenoux-biars;44.9273692;1.8436871;FR
1001;Ettendorf;ettendorf;48.8127990000;7.5824550000;FR
1002;Alteckendorf;alteckendorf;48.7916550000;7.5970460000;FR
1003;Tauxigny;tauxigny;47.251986;0.840095;FR
1004;Griesbach le Bastberg;griesbach-le-bastberg;48.8147200000;7.4359420000;FR
1005;Niedermodern;niedermodern;48.84345200561577;7.614008188247681;FR
1006;Ebersheim;ebersheim;48.3099953;7.494471;FR
1007;Kogenheim;kogenheim;48.3389532;7.5353085;FR
1008;Benfeld;benfeld;48.3735367;7.584125;FR
1009;Matzenheim;matzenheim;48.3987556;7.6196003;FR
1010;Erstein;erstein;48.4229857;7.6387869;FR
1011;Scherwiller;scherwiller;48.2869344;7.4301867;FR
1012;Dambach-la-Ville;dambach-la-ville;48.3216345;7.4355565;FR
1013;Epfig;epfig;48.3637643;7.4504053;FR
1014;Eichhoffen;eichhoffen;48.3824829;7.4495524;FR
1015;Barr;barr;48.4032933;7.4565189;FR
1016;Gertwiller;gertwiller;48.4133621;7.4663166;FR
1017;Goxwiller;goxwiller;48.4327551;7.4787296;FR
1018;Obernai;obernai;48.46219;7.48881;FR
1019;Bischoffsheim;bischoffsheim;48.48701;7.49772;FR
1021;Rosheim;rosheim;48.50525;7.49093;FR
1022;Dorlisheim;dorlisheim;48.5249915;7.4930546;FR
1034;Lingolsheim;lingolsheim;48.5594092;7.6781143;FR
1035;Holtzheim;holtzheim;48.555688;7.6630912;FR
1036;Entzheim Aéroport;entzheim-aeroport;48.54699;7.62794;FR
1037;Duppigheim;duppigheim;48.5439674;7.5868091;FR
1038;Duttlenheim;duttlenheim;48.5453531;7.5661529;FR
1039;Dachstein;dachstein;48.5428546;7.5330038;FR
1040;Mutzig;mutzig;48.5337753;7.4621581;FR
1041;Gresswiller;gresswiller;48.53334;7.42468;FR
1042;Heiligenberg – Mollkirch;heiligenberg-mollkirch;48.5273135;7.381426;FR
1043;Urmatt;urmatt;48.5257763;7.3385385;FR
1044;Mullerhof;mullerhof;48.52451;7.3119577;FR
1045;Lutzelhouse;lutzelhouse;48.51812;7.29391;FR
1046;Wisches;wisches;48.5076495;7.2700936;FR
1047;Bayeux;bayeux;49.269836;-0.698056;FR
1048;Russ – Hersbach;russ-hersbach;48.4982211;7.2519246;FR
1049;Schirmeck – La Broque;schirmeck-la-broque;48.47973;7.21594;FR
1050;Rothau;rothau;48.4590026;7.2074902;FR
1051;Fouday;fouday;48.4248874;7.1874246;FR
1052;St-Blaise-la-Roche – Poutay;st-blaise-la-roche-poutay;48.4076094;7.165329;FR
1053;Saulxures;saulxures;48.3895555;7.1478548;FR
1054;Bourg-Bruche;bourg-bruche;48.3598566;7.1371919;FR
1055;Saales;saales;48.3471556;7.1103726;FR
1056;Chatenois;chatenois;48.27620999024407;7.401410937309265;FR
1057;Val-de-Villé;val-de-ville;48.284083;7.383326;FR
1059;Lièpvre;liepvre;48.2666670000;7.2833330000;FR
1060;Ste-Croix-aux-Mines;ste-croix-aux-mines;48.258535;7.246591;FR
1061;Sainte-Marie-aux-Mines (Mairie);sainte-marie-aux-mines-mairie;48.24571107288924;7.182526588439941;FR
1062;Réding;reding;48.7429595;7.095885;FR
1063;Igney – Avricourt;igney-avricourt;48.6467012;6.8053062;FR
1064;Nouvel-Avricourt;nouvel-avricourt;48.646806;6.819252;FR
1065;Rechicourt-le-Château;rechicourt-le-chateau;48.6666670000;6.8500000000;FR
1066;Béziers;beziers;43.336330;3.218873;FR
1067;Gondrexange;gondrexange;48.6833330000;6.9333330000;FR
1068;Heming;heming;48.7000000000;6.9500000000;FR
1069;Arzviller;arzviller;48.7166670000;7.1666670000;FR
1070;Lutzelbourg;lutzelbourg;48.7299065;7.2516808;FR
1071;Hommarting;hommarting;48.7333330000;7.1500000000;FR
1072;St-Jean-de-Bassel;st-jean-de-bassel;48.80223;6.990722;FR
1073;Gosselming;gosselming;48.7833330000;7.0000000000;FR
1074;Dolving;dolving;48.7666670000;7.0166670000;FR
1075;Romelfing;romelfing;48.8333330000;7.0166670000;FR
1076;Cutting;cutting;48.8500000000;6.8333330000;FR
1077;Domnon-les-Dieuze;domnon-les-dieuze;48.8666670000;6.8166670000;FR
1078;Bassing;bassing;48.8666670000;6.8000000000;FR
1079;Nebing;nebing;48.9000000000;6.8166670000;FR
1080;Loudrefing;loudrefing;48.8500000000;6.8666670000;FR
1081;Mittersheim;mittersheim;48.8666670000;6.9333330000;FR
1083;Oberstinzel;oberstinzel;48.8000000000;7.0333330000;FR
1085;Sarraltroff;sarraltroff;48.7833330000;7.0500000000;FR
1086;Bettborn;bettborn;48.8000000000;7.0166670000;FR
1088;Fénétrange;fenetrange;48.8500000000;7.0166670000;FR
1089;Niederstinzel;niederstinzel;48.8666670000;7.0333330000;FR
1090;Wolfskirchen;wolfskirchen;48.882773;7.060676;FR
1091;Bischtroff-sur-Sarre;bischtroff-sur-sarre;48.904752;7.073512;FR
1092;Sarrewerden;sarrewerden;48.9166670000;7.0833330000;FR
1093;Sarre-Union;sarre-union;48.9360172;7.0850443;FR
1094;Schopperten;schopperten;48.9456499;7.055779;FR
1095;Keskastel;keskastel;48.9656988;7.0489315;FR
1096;Oermingen;oermingen;49.0003724;7.1317322;FR
1097;Voellerdingen;voellerdingen;;;FR
1099;Diemeringen;diemeringen;48.94050;7.18529;FR
1100;Tieffenbach – Struth;tieffenbach-struth;48.9062169;7.25527;FR
1101;Frohmuhl;frohmuhl;48.907269;7.275464;FR
1104;Chambourg Chopin;chambourg-chopin;47.1833330000;0.9666670000;FR
1105;Eycheil;eycheil;42.9666670000;1.1666670000;FR
1110;Erce;erce;42.84786930113146;1.290196180343628;FR
1111;Aulus-les-Bains;aulus-les-bains;42.8000000000;1.3333330000;FR
1112;Latrape;latrape;42.795556;1.313611;FR
1113;Alaï;alai;45.7521198;4.7717824;FR
1114;Cravant-Bazarnes;cravant-bazarnes;47.6785079;3.6811741;FR
1115;Lamure-sur-Azergues;lamure-sur-azergues;46.0610834;4.4921137;FR
1116;Sorèze;soreze;43.454232;2.072912;FR
1119;Carcassonne;carcassonne;43.218029;2.351824;FR
1120;Balsièges;balsieges;44.4820108;3.4560976;FR
1123;Châlons-en-Champagne;chalons-en-champagne;48.8333330000;4.0833330000;FR
1124;Châlons-en-Champagne Tissier;chalons-en-champagne-tissier;48.939702;4.36064;FR
1125;Châlons-en-Champagne;chalons-en-champagne;48.955252;4.348656;FR
1126;Châlons-en-Champagne Bagatelle;chalons-en-champagne-bagatelle;48.925562;4.371831;FR
1128;Paris Gare du Nord;paris-gare-du-nord;48.880185;2.355151;FR
1129;Paris Gare du Nord;paris-gare-du-nord;48.880185;2.355151;FR
1137;Culmont-Chalindrey;culmont-chalindrey;47.8100902;5.4432217;FR
1139;Capdenac;capdenac;44.5782458;2.0779632;FR
1143;Aéroport Paris Roissy Charles de Gaulle CDG;aeroport-paris-roissy-charles-de-gaulle-cdg;49.00412433626132;2.5707364082336426;FR
1144;Aéroport Paris Roissy Charles de Gaulle CDG T2;aeroport-paris-roissy-charles-de-gaulle-cdg-t2;49.003652;2.570892;FR
1150;Coudekerque-Branche;coudekerque-branche;51.0177069;2.3751425;FR
1151;Château-du-Loir;chateau-du-loir;47.683392;0.414912;FR
1159;Nanteuil-le-Haudouin;nanteuil-le-haudouin;49.14275;2.79459;FR
1160;Ormoy-Villers;ormoy-villers;49.2003204;2.8379502;FR
1161;Crépy-en-Valois;crepy-en-valois;49.2312350;2.8864694;FR
1162;Vaumoise;vaumoise;49.2339406;2.9885685;FR
1163;Villers-Cotterêts;villers-cotterets;49.25026;3.09370;FR
1164;Longpont;longpont;49.2726851;3.2301676;FR
1165;Vierzy;vierzy;49.2910309;3.2773026;FR
1166;Crouy;crouy;49.4037093;3.3569138;FR
1167;Margival;margival;49.4393862;3.4027491;FR
1168;Jaux;jaux;49.3868029;2.777316;FR
1173;Choisy-au-Bac;choisy-au-bac;49.4377710000;2.8773880000;FR
1175;Esches;esches;49.2125205;2.1708125;FR
1176;Vineuil-St-Firmin;vineuil-st-firmin;49.199933921573056;2.4912357330322266;FR
1177;Courteuil;courteuil;49.2000000000;2.5333330000;FR
1178;St-Nicolas-Aumont;st-nicolas-aumont;49.202097;2.549574;FR
1179;Cannes;cannes;43.5500000000;7.0166670000;FR
1180;Cannes;cannes;43.553839;7.019682;FR
1181;Cannes – La Bocca;cannes-la-bocca;43.548787;6.986601;FR
1182;St-Jean-le-Centenier;st-jean-le-centenier;44.5833330000;4.5333330000;FR
1183;Cholet;cholet;47.065698;-0.869583;FR
1185;Longueil-Annel;longueil-annel;49.4672441;2.8634086;FR
1187;Corcy;corcy;49.2550929;3.2157221;FR
1188;Paris Gare du Nord 2;paris-gare-du-nord-2;;;FR
1193;Clermont-Ferrand;clermont-ferrand;45.778945;3.100543;FR
1198;Conflans – Jarny;conflans-jarny;49.1662895;5.8681853;FR
1205;Laigneville;laigneville;49.29276;2.44894;FR
1206;Caen;caen;49.176354;-0.347613;FR
1207;Liancourt-Rantigny;liancourt-rantigny;49.32471;2.44532;FR
1213;Orry-la-Ville – Coye;orry-la-ville-coye;49.13895;2.49000;FR
1215;Longueil-Ste-Marie;longueil-ste-marie;49.3425377;2.7175537;FR
1216;Chevrières;chevrieres;49.3373064;2.6828025;FR
1217;Pont-Ste-Maxence;pont-ste-maxence;49.30974;2.60289;FR
1219;Rieux-Angicourt;rieux-angicourt;49.29866;2.52140;FR
1221;Villers-St-Paul;villers-st-paul;49.2825762;2.4899067;FR
1239;Chagny;chagny;46.907269;4.749682;FR
1243;Montataire;montataire;49.2510365;2.4362155;FR
1250;Bornel – Belle-Église;bornel-belle-eglise;49.19471;2.20717;FR
1251;Chaulnes;chaulnes;49.8076201;2.8011421;FR
1252;Chambly;chambly;49.16362;2.24048;FR
1253;Le Meux-la-Croix-St-Ouen;le-meux-la-croix-st-ouen;49.3594029;2.7532645;FR
1254;Thourotte;thourotte;49.4760722;2.8830021;FR
1256;Ribécourt;ribecourt;49.50633;2.92714;FR
1257;Châteauroux;chateauroux;46.809737;1.699536;FR
1258;Ourscamps;ourscamps;49.5341405;2.9540017;FR
1259;Noyon;noyon;49.57736;3.00641;FR
1261;Avilly – St-Léonard;avilly-st-leonard;49.2000000000;2.5333330000;FR
1262;Plainval;plainval;49.5333330000;2.4500000000;FR
1263;Domfront Domélien;domfront-domelien;49.603052;2.527254;FR
1264;Bergues;bergues;50.96901;2.42574;FR
1265;Esquelbecq;esquelbecq;50.8894369;2.4121536;FR
1266;Arnèke;arneke;50.831522;2.4083063;FR
1267;Cassel;cassel;50.7875916;2.4599722;FR
1268;Gravelines;gravelines;50.978736;2.1232852;FR
1269;Bourbourg;bourbourg;50.952267;2.1942305;FR
1270;Grande-Synthe;grande-synthe;51.0026884;2.3133547;FR
1271;Courghain;courghain;50.99702883034289;2.2941899299621578;FR
1272;Pont-d’Ardres;pont-dardres;50.8920781;1.9712144;FR
1273;Audruicq;audruicq;50.87567;2.07636;FR
1274;Watten-Éperlecques;watten-eperlecques;50.8254043;2.2079599;FR
1275;Renescure;renescure;50.732006;2.3713644;FR
1276;Ebblinghem;ebblinghem;50.7306459;2.409148;FR
1281;Hellemmes;hellemmes;50.6226402;3.1149328;FR
1282;Loos-les-Lille;loos-les-lille;50.6128165;3.0170581;FR
1283;Steenwerck;steenwerck;50.713459;2.7855769;FR
1284;Bailleul;bailleul;50.72916;2.73445;FR
1285;Strazeele;strazeele;50.713492;2.6312181;FR
1286;Wambrechies;wambrechies;50.6812648;3.0402974;FR
1287;Quesnoy-sur-Deûle;quesnoy-sur-deule;50.7081361;2.9952832;FR
1288;Comines;comines;50.7608973;3.0096253;FR
1289;Pérenchies;perenchies;50.66697;2.97729;FR
1290;Santes;santes;50.5920123;2.961977;FR
1291;Wavrin;wavrin;50.57443;2.93672;FR
1292;La Fontaine;la-fontaine;50.5661459;2.9261079;FR
1295;Phalempin;phalempin;50.51540;3.01990;FR
1296;Wattignies;wattignies;50.5793139;3.051975;FR
1297;Ronchin;ronchin;50.6045664;3.0783734;FR
1298;Rosult;rosult;50.4563667;3.3490115;FR
1299;Landas;landas;50.4687775;3.290568;FR
1301;Templeuve;templeuve;50.52863;3.17559;FR
1302;Fretin;fretin;50.5599254;3.1495133;FR
1303;Tressin;tressin;50.6118114;3.1895634;FR
1304;Cysoing;cysoing;50.5620393;3.2098913;FR
1305;Genech;genech;50.5306894;3.2205033;FR
1306;Pont-de-Bois;pont-de-bois;50.62403;3.13026;FR
1307;Lesquin;lesquin;50.59068;3.11771;FR
1308;Annappes;annappes;50.6227708;3.1475351;FR
1309;Baisieux;baisieux;50.61845;3.2347796;FR
1314;Lezennes;lezennes;50.6205699;3.0986481;FR
1315;Mont-de-Terre;mont-de-terre;50.6176672;3.0966031;FR
1316;Chambourg;chambourg;47.1833330000;0.9666670000;FR
1317;Chambourg;chambourg;47.1821629;0.9648363;FR
1318;Nieppe;nieppe;50.6966975;2.8289655;FR
1319;Marquette;marquette;50.6724025;3.0510262;FR
1320;Deûlémont;deulemont;50.7159172;2.9933077;FR
1321;Ste-Marguerite;ste-marguerite;50.7403764;3.0092045;FR
1322;Clisson;clisson;47.086142;-1.286172;FR
1323;Anstaing;anstaing;50.6040201;3.1933039;FR
1324;Bouvines;bouvines;50.5737864;3.2021971;FR
1325;Cobrieux;cobrieux;50.5402798;3.2191247;FR
1326;Lille Porte de Douai;lille-porte-de-douai;50.6119054;3.075837;FR
1328;Ennevelin;ennevelin;50.5492981;3.1586612;FR
1329;Challans;challans;46.843962;-1.871879;FR
1330;Nortkerque;nortkerque;50.8829544;2.0231501;FR
1331;Ruminghem;ruminghem;50.8620636;2.1576706;FR
1332;Casino – Lacroix-Laval;casino-lacroix-laval;45.7878115;4.7309383;FR
1335;Recquignies;recquignies;50.2840466;4.0445029;FR
1337;Anor;anor;49.984892;4.0929803;FR
1338;Charmes-sur-Rhône;charmes-sur-rhone;44.8666670000;4.8333330000;FR
1339;Chambéry Challes-les-Eaux;chambery-challes-les-eaux;45.571302;5.919547;FR
1340;Le Cateau;le-cateau;50.0914606;3.5400454;FR
1341;Louvroil;louvroil;50.2683469;3.9535768;FR
1342;Hautmont;hautmont;50.25398;3.91522;FR
1343;Landrecies;landrecies;50.1283138;3.681997;FR
1344;Sains-du-Nord;sains-du-nord;50.0889485;4.0016955;FR
1345;Avesnelles;avesnelles;50.1185513;3.9485876;FR
1346;Avesnes;avesnes;50.12674;3.93295;FR
1347;Dompierre (Hauts-de-France);dompierre-hauts-de-france;50.146144;3.871144;FR
1348;Velle-le-Châtel;velle-le-chatel;47.602035;6.047214;FR
1349;Colmar;colmar;48.0833330000;7.3666670000;FR
1350;Leval;leval;50.1845311;3.8366811;FR
1351;Berlaimont;berlaimont;50.1980095;3.8105316;FR
1352;Le Quesnoy;le-quesnoy;50.25021;3.64552;FR
1355;Marle-sur-Serre;marle-sur-serre;49.747192;3.7695801;FR
1356;Vervins;vervins;49.8299236;3.8936313;FR
1357;Origny-en-Thiérache;origny-en-thierache;49.8906693;4.0241558;FR
1358;Crépy-Couvron;crepy-couvron;49.6233401;3.5167165;FR
1359;Cognac;cognac;45.684682;-0.326112;FR
1360;Clacy-Mons;clacy-mons;49.5439229;3.5766816;FR
1361;Bohain;bohain;49.9884143;3.4431289;FR
1362;Fresnoy-le-Grand;fresnoy-le-grand;49.9501964;3.43268;FR
1363;Athiès-sous-Laon;athies-sous-laon;49.610126;3.610166;FR
1364;Samoussy;samoussy;49.583932;3.730954;FR
1366;Bucy-Les-Pierrepont;bucy-les-pierrepont;49.645058;3.898882;FR
1367;Clermont-lès-Fermes;clermont-les-fermes;49.666138;3.935162;FR
1368;Montcornet;montcornet;49.694508;4.030754;FR
1369;Rozoy-sur-Serre Place Neuville;rozoy-sur-serre-place-neuville;49.708792;4.123289;FR
1371;Montescourt;montescourt;49.7380842;3.2519756;FR
1372;Appilly;appilly;49.5808826;3.1221903;FR
1373;Anizy-Pinon;anizy-pinon;49.4960073;3.4487637;FR
1374;Versigny;versigny;49.6574494;3.4335692;FR
1375;Chauny;chauny;49.61119;3.22354;FR
1377;La Fère;la-fere;49.65802;3.36981;FR
1378;Flavy-le-Martel;flavy-le-martel;49.7187375;3.1905076;FR
1380;Collonges – Fontaines;collonges-fontaines;45.8291102;4.8466136;FR
1382;Viry-Noureuil;viry-noureuil;49.6274493;3.2503611;FR
1384;La Bouteille;la-bouteille;49.8596168;3.9817635;FR
1385;La Neuville-sous-Laon;la-neuville-sous-laon;49.57082365419704;3.5968798398971553;FR
1386;Verneuil-sur-Serre;verneuil-sur-serre;49.6486805;3.6677085;FR
1387;Dercy-Froidmont;dercy-froidmont;49.7025404;3.6918473;FR
1389;Voyenne;voyenne;49.7260708;3.7202555;FR
1391;Coutras;coutras;45.036610;-0.13169;FR
1392;Gizy;gizy;49.597092;3.770777;FR
1393;Chivres-en-Laonnois;chivres-en-laonnois;49.632761;3.843346;FR
1394;Chaourse;chaourse;49.70405588474763;3.998165130615234;FR
1395;Magny;magny;49.7177;4.0590;FR
1396;Chéry-les-Rozoy Place de l’Église;chery-les-rozoy-place-de-leglise;49.719993;4.091152;FR
1397;Rouvroy – Résigny – Grandrieux;rouvroy-resigny-grandrieux;;;FR
1398;Le Fréty St-Gorgon;le-frety-st-gorgon;49.7333330000;4.2833330000;FR
1399;La Ferée;la-feree;49.7500000000;4.3000000000;FR
1400;Mainbressy;mainbressy;49.7000000000;4.2166670000;FR
1401;Vauxaillon;vauxaillon;49.4741418;3.4096166;FR
1402;Barenton-Bugny;barenton-bugny;49.6307907;3.6559914;FR
1403;Les Bons-Pères;les-bons-peres;50.2798638;4.010967;FR
1404;Hachette;hachette;50.1582852;3.7434526;FR
1405;St-Hilaire;st-hilaire;50.1319709;3.9140099;FR
1409;Chaulnes Centre;chaulnes-centre;49.817786;2.80529;FR
1410;Miannay;miannay;50.1000000000;1.7166670000;FR
1412;Brunvillers-La-Motte;brunvillers-la-motte;49.545224;2.471098;FR
1413;Crèvecœur-le-Petit;crevecoeur-le-petit;49.5833330000;2.5000000000;FR
1414;Goyencourt;goyencourt;49.7166670000;2.7666670000;FR
1415;Royaucourt;royaucourt;49.6000000000;2.5333330000;FR
1416;Ste-Geneviève;ste-genevieve;49.71968;4.07414;FR
1417;Calais;calais;50.95345262552378;1.850595474243164;FR
1419;Calais Fréthun;calais-frethun;50.902585;1.811286;FR
1420;Villers-Carbonnel;villers-carbonnel;49.872027;2.893357;FR
1421;Guer – Coëtquidan;guer-coetquidan;47.984355;-2.176522;FR
1422;Longueau;longueau;49.86344;2.35215;FR
1423;Corbie;corbie;49.9116183;2.4996846;FR
1424;Méricourt-Ribemont;mericourt-ribemont;49.9556384;2.5726254;FR
1425;Albert;albert;50.00546;2.64453;FR
1426;Picquigny;picquigny;49.9461557;2.1432765;FR
1427;Hangest;hangest;49.9822011;2.0661412;FR
1428;Longpré-les-Corps-Saints;longpre-les-corps-saints;50.01128;2.00277;FR
1429;Pont-Remy;pont-remy;50.0472341;1.8988404;FR
1430;La Faloise;la-faloise;49.696527;2.3485813;FR
1431;Breteuil Embranchement;breteuil-embranchement;49.626389;2.3845164;FR
1432;Gannes;gannes;49.5723315;2.4370074;FR
1433;St-Rémy-en-l’Eau;st-remy-en-leau;49.4681726;2.4258609;FR
1434;Avrechy;avrechy;49.4446439;2.4179608;FR
1435;Clermont-de-l’Oise;clermont-de-loise;49.38531;2.41767;FR
1436;Moreuil;moreuil;49.77699;2.47582;FR
1437;Hargicourt-Pierrepont;hargicourt-pierrepont;49.7138593;2.5317673;FR
1438;Tricot;tricot;49.5619878;2.5815586;FR
1439;St-Georges-les-Bains – Châteaurouge;st-georges-les-bains-chateaurouge;44.848585;4.826856;FR
1440;Crest;crest;44.7301546;5.0160968;FR
1441;Namps-Quevauvillers;namps-quevauvillers;49.8082274;2.1053184;FR
1442;Estrées-St-Denis;estrees-st-denis;49.4382161;2.642402;FR
1443;Poix-de-Picardie;poix-de-picardie;49.7778561;1.9897767;FR
1444;Remy;remy;49.4331452;2.7059434;FR
1445;Roisel la Poste;roisel-la-poste;49.9500000000;3.1000000000;FR
1446;Villers-Bretonneux;villers-bretonneux;49.86295;2.52141;FR
1447;Marcelcave;marcelcave;49.8532165;2.5819031;FR
1449;Rosières (Somme);rosieres-somme;49.82253;2.71141;FR
1450;Nesle;nesle;49.7639147;2.9089882;FR
1451;Ham;ham;49.73985;3.07052;FR
1452;Chaponost;chaponost;45.6984889;4.7643014;FR
1453;Cramoisy;cramoisy;49.256625;2.40489;FR
1454;Cires-lès-Mello;cires-les-mello;49.2717956;2.3601903;FR
1455;Balagny-St-Epin;balagny-st-epin;49.2942448;2.3441977;FR
1456;Mouy-Bury;mouy-bury;49.32045;2.32635;FR
1457;Hermes-Berthecourt;hermes-berthecourt;49.3544055;2.2416554;FR
1458;Villers-St-Sépulcre;villers-st-sepulcre;49.3680779;2.2204386;FR
1459;Rochy-Condé;rochy-conde;49.3986042;2.1727344;FR
1460;Méru;meru;49.23233;2.13254;FR
1461;Laboissière-le-Déluge;laboissiere-le-deluge;49.2885368;2.1361486;FR
1462;St-Sulpice-Auteuil;st-sulpice-auteuil;49.3473824;2.1164133;FR
1463;Herchies;herchies;49.4879546;2.0109273;FR
1464;Milly-sur-Thérain;milly-sur-therain;49.5035256;1.988233;FR
1465;Creil;creil;49.2637570;2.4692439;FR
1466;St-Omer-en-Chaussée;st-omer-en-chaussee;49.5306261;1.9970829;FR
1467;Marseille-en-Beauvaisis;marseille-en-beauvaisis;49.5709066;1.9546349;FR
1468;Grandvilliers;grandvilliers;49.6593779;1.9384836;FR
1469;Feuquières-Broquiers;feuquieres-broquiers;49.6545751;1.8305169;FR
1470;Aumale;aumale;49.7650371;1.7560425;FR
1471;Crasville-la-Mallet;crasville-la-mallet;49.8000000000;0.7166670000;FR
1472;Lachapelle-sous-Aubenas;lachapelle-sous-aubenas;44.58228;4.346167;FR
1473;Blangy-sur-Bresle;blangy-sur-bresle;49.9326071;1.6259074;FR
1474;Longroy – Gamaches;longroy-gamaches;49.9818917;1.5526598;FR
1475;Chasse-sur-Rhône;chasse-sur-rhone;45.582370;4.794843;FR
1476;Formerie;formerie;49.6542178;1.7229081;FR
1477;Fouilloy;fouilloy;49.7366368;1.8260404;FR
1478;Daours;daours;49.899267;2.4590533;FR
1479;Maignelay Centre;maignelay-centre;49.5500000000;2.5166670000;FR
1480;Dompierre Monument aux Morts (Hauts-de-France);dompierre-monument-aux-morts-hauts-de-france;49.596319;2.516817;FR
1481;Marchelepot;marchelepot;49.8333330000;2.8666670000;FR
1482;Pont-les-Brie;pont-les-brie;49.877555;2.921934;FR
1483;Cartigny;cartigny;49.9166670000;3.0166670000;FR
1484;Châteaubriant;chateaubriant;47.7175212;-1.3715152;FR
1485;Hattencourt;hattencourt;49.7666670000;2.7833330000;FR
1486;Laboissière-Fescamps;laboissiere-fescamps;49.651216;2.671153;FR
1487;Le Château-d’Oléron;le-chateau-doleron;45.887415;-1.196149;FR
1489;Chartres Gare Routière;chartres-gare-routiere;48.44764;1.48052;FR
1491;Lamotte-Brebières;lamotte-brebieres;49.88555533209149;2.397390604019165;FR
1492;Heilly;heilly;49.9435191;2.5396593;FR
1493;Buire-sur-l’Ancre;buire-sur-lancre;49.9647735;2.5981885;FR
1494;Dreuil-lès-Amiens;dreuil-les-amiens;49.91444;2.23091;FR
1497;Dommartin-Remiencourt;dommartin-remiencourt;49.7996523;2.3926625;FR
1498;Thézy-Glimont;thezy-glimont;49.8118528;2.435931;FR
1499;Le Castelet;le-castelet;42.740759;1.789734;FR
1503;Châteauroux;chateauroux;46.8166670000;1.7000000000;FR
1504;Châteauroux Gare Routière;chateauroux-gare-routiere;46.809088;1.688012;FR
1505;Castelnaudary;castelnaudary;43.312292;1.950390;FR
1506;Famechon;famechon;49.7500000000;2.0500000000;FR
1507;Wacquemoulin;wacquemoulin;49.5032575;2.6116581;FR
1508;Hyencourt-le-Grand;hyencourt-le-grand;49.8166670000;2.8333330000;FR
1509;Eterpigny;eterpigny;49.8833330000;2.9166670000;FR
1510;Doingt;doingt;49.9166670000;2.9666670000;FR
1511;Tincourt-Boucly;tincourt-boucly;49.942071;3.014208;FR
1512;Marquaix;marquaix;49.94459222935854;3.072556257247925;FR
1513;Ire-le-Sec;ire-le-sec;49.475576;5.386381;FR
1516;Hallu;hallu;49.7833330000;2.8000000000;FR
1517;Fresnoy-les-Roye;fresnoy-les-roye;49.7333330000;2.7833330000;FR
1518;Laucourt;laucourt;49.6666670000;2.7666670000;FR
1519;Dancourt;dancourt;49.6666670000;2.7333330000;FR
1520;Châteaudun;chateaudun;48.073463;1.338133;FR
1521;Grivillers;grivillers;49.6500000000;2.7333330000;FR
1522;Faverolles;faverolles;49.6333330000;2.6166670000;FR
1523;Heilles-Mouchy;heilles-mouchy;49.340531;2.2725858;FR
1524;Montreuil-sur-Thérain;montreuil-sur-therain;49.38152;2.2002529;FR
1525;Villers-sur-Thère;villers-sur-there;49.414583;2.1355274;FR
1529;Cluny;cluny;46.43362015175737;4.662505388259888;FR
1530;Culoz;culoz;45.843264;5.778784;FR
1531;Ste-Segrée;ste-segree;49.7500000000;1.9166670000;FR
1532;Aubin-St-Vaast;aubin-st-vaast;50.3946137;1.9705382;FR
1534;Marville;marville;49.4500000000;5.4500000000;FR
1535;Pihen;pihen;50.8727855;1.7845632;FR
1536;Le Haut-Banc;le-haut-banc;50.8163364;1.7722209;FR
1537;Feuquerolles;feuquerolles;50.0648443;1.605574;FR
1538;Boulogne-sur-Mer Tintelleries;boulogne-sur-mer-tintelleries;50.72729;1.60904;FR
1539;Rang-du-Fliers – Verton;rang-du-fliers-verton;50.41579;1.64805;FR
1540;Dannes-Camiers;dannes-camiers;50.5759062;1.614825;FR
1541;Neufchâtel-Hardelot;neufchatel-hardelot;50.62364;1.643115;FR
1542;Pont-de-Briques;pont-de-briques;50.6828164;1.6268038;FR
1543;Wimille – Wimereux;wimille-wimereux;50.7638456;1.6137455;FR
1545;Montreuil-sur-Mer;montreuil-sur-mer;50.4661948;1.7691662;FR
1546;Brimeux;brimeux;50.4470409;1.8313826;FR
1547;Beaurainville;beaurainville;50.422891;1.895345;FR
1548;Maresquel;maresquel;50.4078186;1.9313418;FR
1549;Hesdin;hesdin;50.378286;2.0351881;FR
1550;Auchy-lès-Hesdin;auchy-les-hesdin;50.3963631;2.1022448;FR
1551;Blangy-sur-Ternoise;blangy-sur-ternoise;50.424669;2.1721585;FR
1552;Anvin;anvin;50.446845;2.25494;FR
1553;Caffiers;caffiers;50.8500679;1.8120345;FR
1554;Marquise-Rinxent;marquise-rinxent;50.8056635;1.72988;FR
1555;Noyelles-sur-Mer;noyelles-sur-mer;50.1875408;1.7045772;FR
1557;Clermont-Ferrand;clermont-ferrand;45.7833330000;3.0833330000;FR
1558;Clermont-Ferrand la Pardieu;clermont-ferrand-la-pardieu;45.766947;3.134163;FR
1559;Clermont-Ferrand la Rotonde;clermont-ferrand-la-rotonde;45.7680954;3.0909704;FR
1560;Quesnoy-le-Montant;quesnoy-le-montant;50.1089683;1.7024945;FR
1561;Chepy-Valines;chepy-valines;50.0682219;1.6358275;FR
1562;Feuquières-Fressenneville;feuquieres-fressenneville;50.0632646;1.5890574;FR
1563;Woincourt;woincourt;50.05867;1.537044;FR
1564;Le Tréport - Mers-les-Bains;le-treport-mers-les-bains;50.0628592;1.3763738;FR
1565;Beau-Marais;beau-marais;50.945371;1.8983301;FR
1567;Coux;coux;44.7666670000;4.6166670000;FR
1568;Miraumont;miraumont;50.0958521;2.7344755;FR
1569;Courcelles-le-Comte;courcelles-le-comte;50.1694124;2.7880351;FR
1570;Boisleux;boisleux;50.2104665;2.771855;FR
1571;Rœux;roeux;50.3034404;2.8950172;FR
1572;Biache-St-Vaast;biache-st-vaast;50.3162525;2.9414975;FR
1573;Bully-Grenay;bully-grenay;50.44843;2.73317;FR
1574;Vitry-en-Artois;vitry-en-artois;50.3276092;2.9820833;FR
1575;Mazingarbe;mazingarbe;50.4608957;2.7005447;FR
1576;Nœux-les-Mines;noeux-les-mines;50.48297;2.67393;FR
1577;Marœuil;maroeuil;50.322603;2.6983279;FR
1579;Frévin-Capelle;frevin-capelle;50.3473177;2.6338262;FR
1580;Chocques;chocques;50.5382038;2.564749;FR
1581;Lillers;lillers;50.56163;2.47903;FR
1582;Aubigny-en-Artois;aubigny-en-artois;50.35297;2.5928045;FR
1583;Savy-Berlette;savy-berlette;50.3538756;2.5577316;FR
1584;Ham-en-Artois;ham-en-artois;50.5900401;2.4657764;FR
1585;Isbergues;isbergues;50.61399;2.46277;FR
1586;Thiennes;thiennes;50.6523561;2.4729218;FR
1587;Steenbecque;steenbecque;50.6806568;2.510089;FR
1588;Tincques;tincques;50.35699;2.4980285;FR
1590;Chéry Centre;chery-centre;47.1166670000;2.0500000000;FR
1591;Beuvry;beuvry;50.5356021;2.6924093;FR
1592;Cuinchy;cuinchy;50.5219693;2.7473533;FR
1593;La Bassée;la-bassee;50.52799;2.80482;FR
1594;Salomé;salome;50.5414529;2.8366078;FR
1595;Marquillies;marquillies;50.5477246;2.8661707;FR
1597;Farbus;farbus;50.357641;2.8310408;FR
1598;Vis-à-Marles;vis-a-marles;50.5050115;2.5171137;FR
1599;Calonne-Ricouart;calonne-ricouart;50.4827036;2.4812098;FR
1600;Pernes-Camblain;pernes-camblain;50.4802048;2.4310823;FR
1601;Vimy;vimy;50.3732316;2.8229549;FR
1602;Avion;avion;50.40723;2.83365;FR
1603;Bailleul-Sir-Berthoult;bailleul-sir-berthoult;50.3351257;2.8409809;FR
1604;St-Amand-les-Eaux;st-amand-les-eaux;50.44331;3.41952;FR
1605;Le Poirier Université;le-poirier-universite;50.33006;3.50273;FR
1607;Wallers;wallers;50.384611;3.3937454;FR
1608;Raismes;raismes;50.3902495;3.4788322;FR
1609;Trith-St-Léger;trith-st-leger;50.3318146;3.4893247;FR
1610;Prouvy-Thiant;prouvy-thiant;50.3167933;3.4610838;FR
1611;Denain;denain;50.3345415;3.388699;FR
1612;Loos-en-Gohelle;loos-en-gohelle;50.4378798;2.7933955;FR
1613;Liévin;lievin;50.434139;2.7716316;FR
1614;Brebières-Sud;brebieres-sud;50.33624;3.0142;FR
1615;Corbehem;corbehem;50.3428545;3.0405375;FR
1616;Pont-de-Sallaumines;pont-de-sallaumines;50.4157922;2.8632044;FR
1617;Coron-de-Méricourt;coron-de-mericourt;50.4150048;2.8854084;FR
1618;Billy-Montigny;billy-montigny;50.41556;2.91206;FR
1619;Hénin-Beaumont;henin-beaumont;50.41706;2.95211;FR
1620;Pont-de-la-Deule;pont-de-la-deule;50.39813;3.08503;FR
1621;Sallaumines;sallaumines;50.4223266;2.8556769;FR
1622;Leforest;leforest;50.42780;3.05977;FR
1623;Loison-sous-Lens;loison-sous-lens;50.4401891;2.8592403;FR
1624;Pont-à-Vendin;pont-a-vendin;50.4713812;2.8751938;FR
1625;Meurchin;meurchin;50.4970516;2.8930903;FR
1626;Bauvin-Provin;bauvin-provin;50.51168;2.90540;FR
1627;Montigny-en-Ostrevent;montigny-en-ostrevent;50.36151;3.18829;FR
1628;Francheville;francheville;45.7336473;4.7693729;FR
1629;Sain-Bel;sain-bel;45.811097;4.6012445;FR
1630;Bouchain;bouchain;50.2780892;3.3319096;FR
1631;Iwuy;iwuy;50.2255015;3.3298634;FR
1632;Sin-le-Noble;sin-le-noble;50.356612;3.112777;FR
1633;Cantin;cantin;50.3124545;3.121943;FR
1634;Arleux;arleux;50.2863204;3.1208073;FR
1635;Brunémont;brunemont;50.2783197;3.1453509;FR
1636;Aubigny-au-Bac;aubigny-au-bac;50.2685315;3.158706;FR
1638;Fressies;fressies;50.25429162071133;3.1936097145080566;FR
1639;Darsac;darsac;45.14211;3.7365537;FR
1641;Escaudœuvres;escaudoeuvres;50.1918249;3.2754949;FR
1642;Maurois;maurois;50.0674506;3.4562554;FR
1643;Bertry;bertry;50.0911265;3.4489955;FR
1644;Caudry;caudry;50.11146;3.40983;FR
1645;Montauban-de-Bretagne;montauban-de-bretagne;48.2000000000;-2.0500000000;FR
1647;Cattenières;cattenieres;50.1280738;3.3337877;FR
1648;Wambaix;wambaix;50.1338767;3.3114074;FR
1649;Cerans-Foulletourte;cerans-foulletourte;47.823206;0.072291;FR
1650;Droué Centre;droue-centre;48.0333330000;1.0833330000;FR
1651;Sarge-sur-Braye Centre;sarge-sur-braye-centre;47.9166670000;0.8500000000;FR
1652;Clermont-Créans Centre;clermont-creans-centre;47.7183080000;-0.0145910000;FR
1653;Echevannes;echevannes;47.5333330000;5.1666670000;FR
1654;Oize Centre;oize-centre;47.8166670000;0.1000000000;FR
1655;La Fontaine-St-Martin;la-fontaine-st-martin;47.7833330000;0.0500000000;FR
1656;Savigny-sur-Braye Centre;savigny-sur-braye-centre;47.8792250000;0.8098130000;FR
1657;St-Jean-de-la-Motte;st-jean-de-la-motte;47.7500000000;0.0666670000;FR
1660;Guécélard;guecelard;47.8833330000;0.1333330000;FR
1661;Parigné-le-Pôlin la Chenaie;parigne-le-polin-la-chenaie;47.854416;0.100679;FR
1678;Liancourt-St-Pierre;liancourt-st-pierre;49.2204964;1.905543;FR
1681;Gisors;gisors;49.28512;1.78455;FR
1682;Sérifontaine;serifontaine;49.3572878;1.7639818;FR
1683;Amécourt-Talmontier;amecourt-talmontier;49.386547;1.73952;FR
1684;Neuf-Marché;neuf-marche;49.417847;1.723304;FR
1685;Gournay – Ferrières;gournay-ferrieres;49.4813674;1.7380891;FR
1691;Conflans-Fin-d’Oise;conflans-fin-doise;48.98931;2.07465;FR
1701;Bréval;breval;48.94336;1.54191;FR
1702;Dourdan;dourdan;48.533466;2.009643;FR
1754;La Bonneville-sur-Iton;la-bonneville-sur-iton;48.9884615;1.035014;FR
1755;Conches;conches;48.9623603;0.9378895;FR
1756;Romilly-la-Puthenaye;romilly-la-puthenaye;49.0039213;0.8548621;FR
1757;Beaumont-le-Roger;beaumont-le-roger;49.0741722;0.7727865;FR
1759;Couesmes Centre;couesmes-centre;47.5666670000;0.3500000000;FR
1760;St-Aubin-le-Dépeint;st-aubin-le-depeint;47.63562092618073;0.3900790214538574;FR
1762;Château-du-Loir Hôtel de Ville;chateau-du-loir-hotel-de-ville;47.7000000000;0.4166670000;FR
1763;Marcilly-sur-Tille;marcilly-sur-tille;47.5166670000;5.1333330000;FR
1764;Raze;raze;47.5833330000;6.0166670000;FR
1765;Mauléon Brossardière;mauleon-brossardiere;46.923394;-0.744792;FR
1767;Paris Montparnasse 2 Pasteur;paris-montparnasse-2-pasteur;;;FR
1778;Die;die;44.7582549;5.3632053;FR
1782;Dijon;dijon;47.32337785274246;5.027124881744385;FR
1783;Dijon Porte Neuve;dijon-porte-neuve;47.322806;5.054872;FR
1787;Dinan;dinan;48.456764;-2.053542;FR
1804;St-Germain – St-Rémy;st-germain-st-remy;48.7585;1.2572208;FR
1807;Nonancourt;nonancourt;48.7757257;1.1929162;FR
1809;Tillières;tillieres;48.7608617;1.0545647;FR
1810;Verneuil-sur-Avre;verneuil-sur-avre;48.7424857;0.9291925;FR
1811;Bourth;bourth;48.7658425;0.804747;FR
1812;Longjumeau;longjumeau;48.7020364;2.2943957;FR
1816;Petit-Vaux;petit-vaux;48.675859;2.3339755;FR
1818;Massy TGV;massy-tgv;48.725758;2.261254;FR
1822;Épernon;epernon;48.6052471;1.6812578;FR
1823;Maintenon;maintenon;48.5854793;1.5920651;FR
1824;St-Piat;st-piat;48.5429526;1.5904889;FR
1825;Jouy;jouy;48.5102582;1.5573972;FR
1826;La Villette – St-Prest;la-villette-st-prest;48.4827197;1.5228734;FR
1827;Amilly – Ouerray;amilly-ouerray;48.4381825;1.3892882;FR
1828;St-Aubin – St-Luperce;st-aubin-st-luperce;48.4476422;1.3318387;FR
1829;Courville-sur-Eure;courville-sur-eure;48.451236;1.234836;FR
1830;Pontgouin;pontgouin;48.477867;1.1414359;FR
1831;La Loupe;la-loupe;48.4737398;1.0109416;FR
1832;Bretoncelles;bretoncelles;48.4326737;0.8923825;FR
1833;Condé-sur-Huisne;conde-sur-huisne;48.3834826;0.8487023;FR
1834;Nogent-le-Rotrou;nogent-le-rotrou;48.3255926;0.8103045;FR
1835;La Taye;la-taye;48.4077566;1.3734019;FR
1836;Bailleau-le-Pin;bailleau-le-pin;48.3668028;1.3248851;FR
1837;Magny-Blandainville;magny-blandainville;48.3342906;1.2811066;FR
1838;Illiers-Combray;illiers-combray;48.303937;1.2448745;FR
1839;Brou;brou;48.2157588;1.1606705;FR
1840;Arrou;arrou;48.0997945;1.1285567;FR
1841;Courtalain – St-Pellerin;courtalain-st-pellerin;48.0735988;1.1270043;FR
1843;Neuville-sur-Sarthe;neuville-sur-sarthe;48.0705577;0.1997294;FR
1844;La Guierche;la-guierche;48.1138773;0.1931016;FR
1845;Dole;dole;47.1000000000;5.5000000000;FR
1847;Montbizot;montbizot;48.151513;0.1908607;FR
1848;Teillé;teille;48.1812341;0.1913397;FR
1849;Vivoin – Beaumont;vivoin-beaumont;48.2302093;0.1447829;FR
1850;La Hutte – Coulombiers;la-hutte-coulombiers;48.303495;0.1056788;FR
1851;Choloy-Menillot;choloy-menillot;48.6666670000;5.8166670000;FR
1853;Domfront;domfront;48.1076766;0.0262592;FR
1854;Conlie;conlie;48.1272909;-0.0113736;FR
1855;Crissé;crisse;48.1681334;-0.0659101;FR
1856;Sillé-le-Guillaume;sille-le-guillaume;48.1818735;-0.1289696;FR
1857;Rouessé-Vassé;rouesse-vasse;48.1602933;-0.1995868;FR
1858;Deols;deols;46.8333330000;1.7000000000;FR
1859;Champagné;champagne;48.0197118;0.3352253;FR
1860;St-Mars-la-Brière;st-mars-la-briere;48.0285239;0.3656778;FR
1861;Montfort-le-Gesnois;montfort-le-gesnois;48.0405657;0.4064237;FR
1862;Connerre – Beillé;connerre-beille;48.0735;0.48687;FR
1863;Sceaux – Boëssé;sceaux-boesse;48.1221004;0.5724063;FR
1864;La Ferté-Bernard;la-ferte-bernard;48.1864887;0.639711;FR
1865;Le Theil – La Rouge;le-theil-la-rouge;48.2672964;0.6944581;FR
1866;Voivres;voivres;47.9304199;0.0853466;FR
1867;La Suze;la-suze;47.8919891;0.0266367;FR
1868;Noyen;noyen;47.8744544;-0.0981755;FR
1870;Neufchâteau Lycée Professionnel;neufchateau-lycee-professionnel;48.360858;5.702252;FR
1871;Buzy-Darmont;buzy-darmont;49.1666670000;5.7000000000;FR
1872;La Flèche;la-fleche;47.696808529186065;-0.06939411163330077;FR
1874;Laigné – St-Gervais;laigne-st-gervais;47.8740074;0.2172097;FR
1875;Écommoy;ecommoy;47.8246286;0.2691867;FR
1876;Aubigné-Racan;aubigne-racan;47.686945;0.2657714;FR
1877;Mayet;mayet;47.7601465;0.2659384;FR
1878;Vaas;vaas;47.6707702;0.3165096;FR
1879;Château-la-Vallière;chateau-la-valliere;47.5500000000;0.3166670000;FR
1881;Mondoubleau;mondoubleau;47.98396;0.898777;FR
1882;Étain Centre;etain-centre;49.2135989092445;5.636265277862549;FR
1886;Elbeuf – St-Aubin;elbeuf-st-aubin;49.302766;1.009930;FR
1887;Tourville;tourville;49.3248177;1.098964;FR
1888;St-Étienne-du-Rouvray;st-etienne-du-rouvray;49.3771553;1.1095673;FR
1889;Sotteville;sotteville;49.4129479;1.102362;FR
1891;Maromme;maromme;49.479935;1.050485;FR
1892;Barentin;barentin;49.549123;0.953517;FR
1893;Pavilly;pavilly;49.563897;0.950644;FR
1895;Forges-les-Eaux;forges-les-eaux;49.61393558012603;1.5534281730651855;FR
1896;St-Martin-du-Vivier;st-martin-du-vivier;49.4704151;1.1615438;FR
1897;Morgny;morgny;49.5232183;1.2478526;FR
1899;Longuerue – Vieux-Manoir;longuerue-vieux-manoir;49.5566781;1.2762275;FR
1900;Monterolier – Buchy;monterolier-buchy;49.6031854;1.3347457;FR
1901;Sommery;sommery;49.6297244;1.4353726;FR
1902;Grémonville;gremonville;49.6666670000;0.8333330000;FR
1903;Doudeville;doudeville;49.7166670000;0.8000000000;FR
1904;Verdun-la-Tour-du-Champ;verdun-la-tour-du-champ;49.171075;5.406993;FR
1905;Ocqueville;ocqueville;49.8000000000;0.6833330000;FR
1906;Néville;neville;49.8166670000;0.7166670000;FR
1907;St-Valéry-en-Caux;st-valery-en-caux;49.86182143224062;0.7132315635681152;FR
1908;Dolus-d’Oléron;dolus-doleron;45.90923036786113;-1.2632828950881958;FR
1909;Montville;montville;49.551284;1.070046;FR
1910;Clères;cleres;49.598964;1.106184;FR
1911;St-Laurent – Gainneville;st-laurent-gainneville;49.5285649;0.2522963;FR
1912;Etainhus – St-Romain;etainhus-st-romain;49.5612151;0.3310234;FR
1913;Virville – Manneville;virville-manneville;49.5835958;0.3541609;FR
1914;Bolbec – Nointot;bolbec-nointot;49.5914657;0.48482;FR
1915;Foucart – Alvimare;foucart-alvimare;49.608289;0.5969601;FR
1916;Dol-de-Bretagne;dol-de-bretagne;48.544250;-1.750536;FR
1917;Don-Sainghin;don-sainghin;50.55176;2.91458;FR
1918;Dommerville;dommerville;;;FR
1920;Fécamp;fecamp;49.759277;0.375287;FR
1921;Dourges;dourges;50.43192;2.98697;FR
1922;Épouville;epouville;49.563814;0.2236662;FR
1923;Rolleville;rolleville;49.5820461;0.2157828;FR
1924;Agen Dot;agen-dot;44.2000000000;0.6333330000;FR
1925;Agen Cimetière;agen-cimetiere;44.2000000000;0.6333330000;FR
1926;Dieppe;dieppe;49.9333330000;1.0833330000;FR
1928;Agen Magnolias;agen-magnolias;44.2000000000;0.6333330000;FR
1929;Arques-la-Bataille;arques-la-bataille;49.8833330000;1.1333330000;FR
1930;St-Vaast-d’Équiqueville;st-vaast-dequiqueville;49.816123;1.265887;FR
1931;Neufchâtel-en-Bray;neufchatel-en-bray;49.7333330000;1.4500000000;FR
1932;Nesle – St-Saire;nesle-st-saire;49.692863;1.497764;FR
1934;St-Aubin-sur-Scie;st-aubin-sur-scie;49.8717479;1.0666642;FR
1936;Longueville-sur-Scie;longueville-sur-scie;49.7917558;1.1103434;FR
1937;Auffay;auffay;49.716044;1.098441;FR
1938;St-Victor;st-victor;49.6770346;1.1097122;FR
1939;Osmoy Carrefour;osmoy-carrefour;49.8000000000;1.3166670000;FR
1940;Bourgtheroulde-Thuit-Hébert;bourgtheroulde-thuit-hebert;49.3174381;0.8383198;FR
1941;Glos-Montfort;glos-montfort;49.2715983;0.6828396;FR
1942;Brionne;brionne;49.1964187;0.7115304;FR
1943;Vernon – Giverny;vernon-giverny;49.091336;1.478570;FR
1944;Gaillon – Aubevoye;gaillon-aubevoye;49.174626;1.352461;FR
1945;St-Pierre-du-Vauvray;st-pierre-du-vauvray;49.2339135;1.2248947;FR
1946;Pont-de-l’Arche;pont-de-larche;49.3170928;1.1596559;FR
1948;Louviers;louviers;49.21591516908271;1.1773449182510376;FR
1949;Rosny-sur-Seine;rosny-sur-seine;48.997287;1.630090;FR
1950;Bonnières;bonnieres;49.038788;1.582205;FR
1951;Bures-en-Bray Carrefour;bures-en-bray-carrefour;49.7833330000;1.3333330000;FR
1952;Dampierre-St-Nicolas Carrefour;dampierre-st-nicolas-carrefour;49.8666670000;1.2000000000;FR
1953;Eragny – Bazincourt;eragny-bazincourt;49.298749;1.78079;FR
1954;Mesnières-en-Bray Centre;mesnieres-en-bray-centre;49.7666670000;1.3833330000;FR
1959;Dracy-St-Loup;dracy-st-loup;47.0166670000;4.3333330000;FR
1961;Dreux Gare Routière;dreux-gare-routiere;48.7333330000;1.3666670000;FR
1962;Bretteville – Norrey;bretteville-norrey;49.2034112;-0.5127396;FR
1963;Audrieu;audrieu;49.2161315;-0.5960138;FR
1964;Le Molay-Littry;le-molay-littry;49.2493263;-0.8809741;FR
1965;Dourdan;dourdan;48.5333330000;2.0166670000;FR
1967;Frénouville – Cagny;frenouville-cagny;49.1411192;-0.2603256;FR
1968;Moult – Argences;moult-argences;49.1111851;-0.1864355;FR
1969;St-Pierre-sur-Dives;st-pierre-sur-dives;49.0231057;-0.0405855;FR
1970;Coulibœuf;couliboeuf;48.9237487;-0.0984574;FR
1971;St-Martin-Valmeroux;st-martin-valmeroux;45.1166670000;2.4166670000;FR
1972;Le Grand-Jardin;le-grand-jardin;49.1505827;0.2271143;FR
1973;Blonville-sur-Mer – Benerville;blonville-sur-mer-benerville;49.3313919;0.0356856;FR
1974;Villers-sur-Mer;villers-sur-mer;49.3159865;0.0099283;FR
1975;Houlgate;houlgate;49.3000711;-0.0772276;FR
1976;Écouché;ecouche;48.7151009;-0.1209574;FR
1977;Nonant-le-Pin;nonant-le-pin;48.7037802;0.2194656;FR
1978;Le Merlerault;le-merlerault;48.7024888;0.2832169;FR
1979;Ste-Gauburge;ste-gauburge;48.7172632;0.4281082;FR
1980;Rai – Aube;rai-aube;48.7437153;0.5536992;FR
1981;L’Aigle;laigle;48.766229;0.620014;FR
1982;Sées;sees;48.5998998;0.1661851;FR
1983;Coutances;coutances;49.042928;-1.441726;FR
1984;Carantilly – Marigny;carantilly-marigny;49.06786;-1.2445285;FR
1986;Pont-Hébert;pont-hebert;49.1625444;-1.1266871;FR
1987;Carentan;carentan;49.302482;-1.244938;FR
1989;Valognes;valognes;49.505454;-1.479860;FR
1990;Orval – Hyenville;orval-hyenville;49.0166670000;-1.4666670000;FR
1991;Quettreville-sur-Sienne;quettreville-sur-sienne;48.9666670000;-1.4666670000;FR
1992;St-Planchers;st-planchers;48.8166670000;-1.5166670000;FR
1993;Villedieu-les-Poêles;villedieu-les-poeles;48.8340495;-1.225559;FR
1994;St-Aubin-des-Bois;st-aubin-des-bois;48.8333330000;-1.1333330000;FR
1995;Mesnil-Clinchamps;mesnil-clinchamps;48.8500000000;-0.9833330000;FR
1996;Fromentel;fromentel;48.71;-0.270521;FR
1997;Bellou-en-Houlme Centre;bellou-en-houlme-centre;48.6902950000;-0.4420280000;FR
1998;Messei Centre;messei-centre;48.7115660000;-0.5373860000;FR
2000;Massy;massy;48.7333330000;2.2833330000;FR
2002;Massy – Palaiseau;massy-palaiseau;48.7264211;2.2575281;FR
2004;La Ferté-Macé;la-ferte-mace;48.5899930000;-0.3580000000;FR
2006;Avranches;avranches;48.6902445;-1.3700755;FR
2008;La Ferté-Macé;la-ferte-mace;48.5899930000;-0.3580000000;FR
2009;La Ferté-Macé Place Neustadt;la-ferte-mace-place-neustadt;48.584205;-0.366759;FR
2010;Incarville;incarville;49.2333330000;1.1833330000;FR
2011;Lonlay-le-Tesson;lonlay-le-tesson;48.6434720000;-0.3534720000;FR
2012;Vern-sur-Seiche;vern-sur-seiche;48.0469707;-1.5966524;FR
2013;Bruz;bruz;48.0286;-1.7518088;FR
2014;Betton;betton;48.1814803;-1.6344745;FR
2015;St-Jacques-de-la-Lande;st-jacques-de-la-lande;48.0670983;-1.7142367;FR
2016;L’Hermitage – Mordelles;lhermitage-mordelles;48.123142;-1.8192987;FR
2017;Montfort-sur-Meu;montfort-sur-meu;48.138878;-1.949141;FR
2018;Montauban-de-Bretagne;montauban-de-bretagne;48.190241;-2.052675;FR
2019;La Brohinière;la-brohiniere;48.2134717;-2.110452;FR
2020;Breteil;breteil;48.1405713;-1.8972095;FR
2021;Laillé;laille;47.9717527;-1.7495654;FR
2022;Guichen – Bourg-des-Comptes;guichen-bourg-des-comptes;47.9350963;-1.7601845;FR
2023;St-Senoux – Pléchâtel;st-senoux-plechatel;47.8977519;-1.7661904;FR
2024;Pléchâtel;plechatel;47.8719509;-1.7763615;FR
2025;Messac – Guipry;messac-guipry;47.82225;-1.81822;FR
2026;Fougeray – Langon;fougeray-langon;47.7297956;-1.8510921;FR
2027;Beslé;besle;47.6988788;-1.8706374;FR
2028;Massérac;masserac;47.6745316;-1.9144441;FR
2030;St-Armel;st-armel;48.014405;-1.5948867;FR
2031;Corps-Nuds;corps-nuds;47.9851669;-1.5754724;FR
2032;Janzé;janze;47.955364;-1.497538;FR
2033;Le Theil-de-Bretagne;le-theil-de-bretagne;47.918742;-1.4319925;FR
2034;Retiers;retiers;47.9132599;-1.3898439;FR
2035;Martigné-Ferchaud;martigne-ferchaud;47.8321302;-1.3137943;FR
2037;Pontchaillou;pontchaillou;48.11918;-1.69107;FR
2038;Chevaigné;chevaigne;48.2089042;-1.6307622;FR
2039;Les Lacs;les-lacs;48.1094359;-1.3208165;FR
2040;Châteaubourg;chateaubourg;48.106361;-1.405159;FR
2041;Servon;servon;48.112224;-1.4667757;FR
2042;Noyal – Acigné;noyal-acigne;48.1187915;-1.5277646;FR
2046;Quédillac;quedillac;48.2484804;-2.1452204;FR
2047;Caulnes;caulnes;48.2844264;-2.155593;FR
2048;Broons;broons;48.3332957;-2.2356578;FR
2049;Plénée-Jugon;plenee-jugon;48.376656;-2.3546108;FR
2050;Plestan;plestan;48.4256462;-2.4424607;FR
2051;Yffiniac;yffiniac;48.4702462;-2.6524629;FR
2052;La Méaugon;la-meaugon;48.4996127;-2.8439358;FR
2053;Plouvara – Plerneuf;plouvara-plerneuf;48.508585;-2.8925136;FR
2054;Châtelaudren – Plouagat;chatelaudren-plouagat;48.5332189;-2.9746782;FR
2056;Belle-Isle – Bégard;belle-isle-begard;48.5935901;-3.3228532;FR
2057;Fresne-St-Mamès;fresne-st-mames;47.5500000000;5.8666670000;FR
2058;Plounérin;plounerin;48.5816298;-3.5682311;FR
2059;Landébia;landebia;48.5074212;-2.3313716;FR
2060;Plancoët;plancoet;48.5216785;-2.2289207;FR
2061;St-Julien;st-julien;48.4500000000;-2.8166670000;FR
2062;Plaintel;plaintel;48.4000000000;-2.8166670000;FR
2063;Quintin;quintin;48.4000000000;-2.9166670000;FR
2064;Dyo;dyo;46.3500000000;4.2833330000;FR
2065;Le Pas;le-pas;;;FR
2066;Plœuc – L’Hermitage;ploeuc-lhermitage;48.327545;-2.825875;FR
2067;Uzel;uzel;;;FR
2068;La Motte;la-motte;48.23565744369227;-2.733428478240967;FR
2069;Loudéac Centre;loudeac-centre;48.180337892604314;-2.7627182006835938;FR
2070;Gourin;gourin;48.1333330000;-3.6000000000;FR
2071;Carhaix;carhaix;48.2780022;-3.5622173;FR
2073;Pont-Melvez;pont-melvez;48.4702228;-3.3114444;FR
2074;Plougonver;plougonver;48.4584133;-3.3704584;FR
2075;Callac;callac;48.4062201;-3.419782;FR
2076;Le Pénity;le-penity;48.3646275;-3.4763815;FR
2077;Carnoët – Locarn;carnoet-locarn;48.3405242;-3.4908822;FR
2078;Coat-Guégan;coat-guegan;48.4803156;-3.2738023;FR
2079;Les Mais;les-mais;48.4262577;-3.3828609;FR
2080;Kerbiquet;kerbiquet;48.094051;-3.636451;FR
2081;Port-de-Carhaix;port-de-carhaix;48.236602;-3.599568;FR
2082;Motreff;motreff;48.2000000000;-3.5500000000;FR
2083;Gourland;gourland;48.5609981;-3.1668191;FR
2084;Trégonneau – Squiffiec;tregonneau-squiffiec;48.6243578;-3.1742524;FR
2085;Brélidy – Plouëc;brelidy-plouec;48.669204;-3.196269;FR
2086;Lancerf;lancerf;48.761873;-3.1181396;FR
2087;Paimpol;paimpol;48.77694;-3.0460958;FR
2088;Frynaudour;frynaudour;48.7275919;-3.1284527;FR
2089;Dirinon;dirinon;48.3926343;-4.2855034;FR
2091;Meuse TGV;meuse-tgv;48.978549;5.270954;FR
2092;Pont-de-Buis;pont-de-buis;48.2544024;-4.0861227;FR
2093;Châteaulin;chateaulin;48.2016033;-4.094308;FR
2094;Lorraine TGV;lorraine-tgv;48.947773;6.169838;FR
2096;Le Juch;le-juch;48.0666670000;-4.2500000000;FR
2097;Bannalec;bannalec;47.9267473;-3.7065268;FR
2099;Kerhuon;kerhuon;48.4096627;-4.3882136;FR
2100;La Forest;la-forest;48.4263093;-4.3074515;FR
2101;La Roche-Maurice;la-roche-maurice;48.4740885;-4.2050964;FR
2102;Landivisiau;landivisiau;48.496002;-4.082181;FR
2103;Guimiliau;guimiliau;48.4852675;-3.9996163;FR
2104;St-Thégonnec;st-thegonnec;48.4942082;-3.9483116;FR
2105;Pleyber-Christ;pleyber-christ;48.5078255;-3.8825543;FR
2107;Plouigneau;plouigneau;48.5647064;-3.7100572;FR
2109;Ernée;ernee;48.297072;-0.933619;FR
2111;Roscoff Port de Bloscon;roscoff-port-de-bloscon;48.719122444072696;-3.967941999435425;FR
2112;Henvic;henvic;48.6333330000;-3.9333330000;FR
2113;Plouenan – Kerlaudy;plouenan-kerlaudy;48.643876;-3.971703;FR
2114;St-Pol-de-Léon;st-pol-de-leon;48.6768402;-3.98731;FR
2115;Roscoff;roscoff;48.7207491;-3.9833434;FR
2116;Kernevel;kernevel;47.9500000000;-3.7833330000;FR
2117;Scaër;scaer;48.0333330000;-3.7000000000;FR
2118;St-Étienne;st-etienne;45.44348229750384;4.399509429931641;FR
2119;St-Étienne Bellevue;st-etienne-bellevue;45.417128;4.392734;FR
2120;St-Étienne le Clapier;st-etienne-le-clapier;45.4371122;4.3782267;FR
2121;St-Étienne la Terrasse;st-etienne-la-terrasse;45.464843;4.379601;FR
2122;St-Étienne Châteaucreux;st-etienne-chateaucreux;45.443366;4.399722;FR
2123;St-Étienne Carnot;st-etienne-carnot;45.446976;4.385317;FR
2125;Guiscriff;guiscriff;48.0500000000;-3.6500000000;FR
2126;Roscoff;roscoff;48.7238120000;-3.9870930000;FR
2127;Argol;argol;48.24601115085295;-4.316833019256592;FR
2128;Telgruc;telgruc;48.231433901417205;-4.3550920486450195;FR
2129;Tal-Ar-Groas;tal-ar-groas;48.24838670592557;-4.418676495552062;FR
2130;Crozon – Morgat;crozon-morgat;48.2479294648027;-4.492850303649902;FR
2131;Camaret-sur-Mer;camaret-sur-mer;48.2749680000;-4.5961480000;FR
2132;Echirolles;echirolles;45.153022;5.718943;FR
2133;Landaul – Mendon;landaul-mendon;47.7359877;-3.0860172;FR
2134;Landevant;landevant;47.759578;-3.1251313;FR
2135;Brandérion;branderion;47.7823179;-3.1940402;FR
2136;Hennebont;hennebont;47.7990019;-3.2857467;FR
2137;Gestel;gestel;47.8029905;-3.4431341;FR
2138;Quimperlé;quimperle;47.869375;-3.552693;FR
2139;Belz – Ploemel;belz-ploemel;47.652466;-3.0721919;FR
2140;Penthièvre;penthievre;47.5580254;-3.1330754;FR
2141;Kerhostin;kerhostin;47.5369524;-3.1363795;FR
2142;Quiberon;quiberon;47.4852978;-3.1181869;FR
2143;Pontivy;pontivy;48.06192304752991;-2.965782880783081;FR
2144;St-Gérand;st-gerand;48.1000000000;-2.8833330000;FR
2145;Ste-Anne-d’Auray;ste-anne-dauray;47.6785805;-2.96048;FR
2146;Questembert;questembert;47.6831803;-2.4496002;FR
2147;Malansac;malansac;47.6756185;-2.2961796;FR
2148;Séverac;severac;47.5498647;-2.072707;FR
2149;St-Gildas-des-Bois;st-gildas-des-bois;47.516614;-2.0438923;FR
2150;Dréfféac;dreffeac;47.4817568;-2.0503661;FR
2151;St-Germain-sur-Ille;st-germain-sur-ille;48.2394802;-1.6541804;FR
2152;St-Médard-sur-Ille;st-medard-sur-ille;48.2742219;-1.6674886;FR
2153;Montreuil-sur-Ille;montreuil-sur-ille;48.307292;-1.674155;FR
2154;Dingé;dinge;48.3507382;-1.6859729;FR
2155;Combourg;combourg;48.41609;-1.72792;FR
2156;Bonnemain;bonnemain;48.4764049;-1.7654125;FR
2157;La Fresnais;la-fresnais;48.593655;-1.8432199;FR
2158;La Gouesnière – Cancale;la-gouesniere-cancale;48.6144207;-1.9058105;FR
2159;Plerguer;plerguer;48.5314637;-1.8505895;FR
2160;Miniac;miniac;48.5315134;-1.914787;FR
2161;Pleudihen;pleudihen;48.4993822;-1.9617515;FR
2162;La Hisse;la-hisse;48.4961248;-2.0036608;FR
2163;Corseul – Languenan;corseul-languenan;48.4960574;-2.1414331;FR
2164;Laval Centre;laval-centre;48.07048017444796;-0.7713925838470459;FR
2165;Montsurs;montsurs;48.14149;-0.5506416;FR
2166;Neau;neau;48.1574807;-0.4766725;FR
2167;Évron;evron;48.155501;-0.397338;FR
2168;Voutré;voutre;48.1340521;-0.2921804;FR
2169;Martigné-sur-mayenne Centre;martigne-sur-mayenne-centre;48.2000000000;-0.6666670000;FR
2170;Commer Centre;commer-centre;48.2333330000;-0.6166670000;FR
2171;St-Fraimbault-de-Prières Centre;st-fraimbault-de-prieres-centre;48.3500000000;-0.5833330000;FR
2172;Ambrières;ambrieres;48.4000000000;-0.6333330000;FR
2173;Le Genest;le-genest;48.0967372;-0.8858084;FR
2174;Port-Brillet;port-brillet;48.1106724;-0.9740682;FR
2175;St-Pierre-la-Cour;st-pierre-la-cour;48.1135968;-1.0252972;FR
2178;Bourgneuf-en-Retz Ecole;bourgneuf-en-retz-ecole;47.04216;-1.94913;FR
2179;Chantenay;chantenay;47.1971227;-1.5943634;FR
2180;Basse-Indre – St-Herblain;basse-indre-st-herblain;47.2040872;-1.6603088;FR
2181;Thouaré;thouare;47.2651143;-1.4409626;FR
2182;Mauves-sur-Loire;mauves-sur-loire;47.2930211;-1.3893042;FR
2183;Le Cellier;le-cellier;47.3135164;-1.3506694;FR
2184;Boussay-la-Bruffière;boussay-la-bruffiere;47.0505741;-1.1828046;FR
2185;Oudon;oudon;47.3433655;-1.291992;FR
2186;Ancenis;ancenis;47.369334;-1.177763;FR
2187;Bouaye;bouaye;47.1380806;-1.6810992;FR
2188;Port-St-Père St-Mars;port-st-pere-st-mars;47.1164915;-1.7393069;FR
2189;Bourgneuf-en-Retz;bourgneuf-en-retz;47.0469634;-1.9551942;FR
2192;Pornic;pornic;47.1145616;-2.0975565;FR
2193;Bourgneuf-en-Retz;bourgneuf-en-retz;47.0500000000;-1.9500000000;FR
2194;Machecoul;machecoul;46.9905038;-1.8227524;FR
2195;Vertou;vertou;47.1861428;-1.4780052;FR
2196;La Haie-Fouassière;la-haie-fouassiere;47.1615899;-1.392195;FR
2197;Le Pallet;le-pallet;47.143831;-1.346898;FR
2198;Gorges;gorges;47.1001487;-1.3058778;FR
2199;Bergerac;bergerac;44.857061;0.489174;FR
2200;Cugand;cugand;47.0582602;-1.253301;FR
2201;Montaigu;montaigu;46.983705;-1.316236;FR
2202;La Croix-de-Méan;la-croix-de-mean;47.300426;-2.1932575;FR
2203;Donges;donges;47.3086552;-2.0719096;FR
2204;Pornichet;pornichet;47.2705354;-2.3445765;FR
2205;Le Pouliguen;le-pouliguen;47.2825404;-2.4331446;FR
2206;Batz-sur-Mer;batz-sur-mer;47.2809541;-2.4789866;FR
2207;Le Croisic;le-croisic;47.289836;-2.507442;FR
2208;Couëron;coueron;47.2220412;-1.7235014;FR
2209;St-Étienne-de-Montluc;st-etienne-de-montluc;47.2747167;-1.7857107;FR
2210;Cordemais;cordemais;47.3021502;-1.8466771;FR
2211;Besné – Pont-Château;besne-pont-chateau;47.4000000000;-2.0833330000;FR
2212;Écouflant;ecouflant;47.5039036;-0.5194782;FR
2213;Le Vieux-Briollay;le-vieux-briollay;47.5739696;-0.4829396;FR
2214;Tiercé;tierce;47.617532;-0.469347;FR
2215;Etriché – Châteauneuf;etriche-chateauneuf;47.6567082;-0.4608993;FR
2217;Morannes;morannes;47.7390902;-0.4179693;FR
2218;Chalonnes;chalonnes;47.34306;-0.74306;FR
2221;Chemillé;chemille;47.217748;-0.731989;FR
2222;Savennières-Béhuard;savennieres-behuard;47.3817332;-0.6540004;FR
2224;Champtoce-sur-Loire;champtoce-sur-loire;47.4102457;-0.8685747;FR
2225;Ingrandes-sur-Loire;ingrandes-sur-loire;47.4056382;-0.9210198;FR
2227;Varades – St-Florent-le-Vieil;varades-st-florent-le-vieil;47.3744471;-1.019712;FR
2228;Château-Gontier;chateau-gontier;47.8500000000;-0.9500000000;FR
2229;Segré;segre;47.686272;-0.876409;FR
2231;L’Île-d’Elle;lile-delle;46.323275;-0.941512;FR
2232;Châtelaillon;chatelaillon;46.0783303;-1.0908909;FR
2233;Tonnay;tonnay;45.9433989;-0.8978981;FR
2234;Surgères;surgeres;46.113238;-0.762284;FR
2235;Mauzé;mauze;46.1995881;-0.6737264;FR
2236;Prin-Deyrançon;prin-deyrancon;46.2190177;-0.6365007;FR
2237;Épannes;epannes;46.2333330000;-0.5833330000;FR
2238;Fors;fors;46.2345203;-0.4069449;FR
2239;Marigny (Deux-Sèvres);marigny-deux-sevres;46.1990832;-0.428404;FR
2240;Beauvoir-sur-Niort;beauvoir-sur-niort;46.1768857;-0.4687544;FR
2241;Prissé-la-Charrière;prisse-la-charriere;46.15277;-0.4936249;FR
2242;La Crèche;la-creche;46.3604181;-0.2962081;FR
2243;St-Maixent;st-maixent;46.406607;-0.201073;FR
2244;La Mothe-St-Héray;la-mothe-st-heray;46.3807592;-0.1298415;FR
2245;Pamproux;pamproux;46.3996295;-0.051931;FR
2246;Rouillé;rouille;46.4190206;0.042169;FR
2247;Lusignan;lusignan;46.4354949;0.116555;FR
2249;Benet – Riche-Bonne;benet-riche-bonne;46.373362;-0.592757;FR
2250;St-Martin-de-Fraigneau;st-martin-de-fraigneau;46.4333330000;-0.7500000000;FR
2253;L’Herbergement – Les-Brouzils;lherbergement-les-brouzils;46.9069172;-1.3712431;FR
2254;Belleville-sur-Vie;belleville-sur-vie;46.788316;-1.4346673;FR
2255;Versonnex;versonnex;46.30108001775652;6.095834970474243;FR
2256;Prévessin Mairie;prevessin-mairie;46.2500000000;6.0833330000;FR
2259;Nalliers Centre;nalliers-centre;46.4666670000;-1.0333330000;FR
2260;La Chaize-le-Vicomte;la-chaize-le-vicomte;46.676779;-1.2820678;FR
2261;Fougeré;fougere;46.6653044;-1.2319718;FR
2262;Bournezeau;bournezeau;46.6518258;-1.1806169;FR
2263;Chantonnay;chantonnay;46.6898472;-1.0544144;FR
2264;Les Clouzeaux;les-clouzeaux;46.6166670000;-1.5166670000;FR
2265;La Mothe-Achard;la-mothe-achard;46.6068648;-1.6596359;FR
2266;Olonne-sur-Mer;olonne-sur-mer;46.5486605;-1.76738;FR
2267;Soullans Centre;soullans-centre;;;FR
2268;Torfou;torfou;47.0331153;-1.1173797;FR
2270;Noirterre;noirterre;46.8666670000;-0.4000000000;FR
2271;Cerizay;cerizay;46.8176878;-0.6689931;FR
2272;St-Mesmin-le-Vieux;st-mesmin-le-vieux;;;FR
2273;Pouzauges;pouzauges;46.7523536;-0.8146784;FR
2275;Chavagnes-les-Redoux;chavagnes-les-redoux;46.7166670000;-0.9000000000;FR
2278;Brion-près-Thouet;brion-pres-thouet;47.0500000000;-0.1833330000;FR
2279;Montreuil-Bellay;montreuil-bellay;47.1254181;-0.1482834;FR
2280;Eurville Mairie;eurville-mairie;48.5833330000;5.0333330000;FR
2282;Vivy Centre;vivy-centre;47.324763;-0.059086;FR
2283;Vernantes Centre;vernantes-centre;47.39358127232468;0.052533745765686035;FR
2286;Longue Centre;longue-centre;47.3833330000;-0.1166670000;FR
2287;Bauge;bauge;47.5500000000;-0.1000000000;FR
2288;La Bohalle;la-bohalle;47.4342356;-0.4000426;FR
2289;Les Rosiers-sur-Loire;les-rosiers-sur-loire;47.3625386;-0.2205371;FR
2290;La Ménitré;la-menitre;47.397422;-0.275818;FR
2291;St-Mathurin;st-mathurin;47.4122473;-0.3182267;FR
2292;Chiche;chiche;46.8000000000;-0.3666670000;FR
2293;Mouzeuil-St-Martin;mouzeuil-st-martin;46.4666670000;-0.9666670000;FR
2296;Bords;bords;45.8944625;-0.7985436;FR
2297;St-Savinien-sur-Charente;st-savinien-sur-charente;45.8759277;-0.6778775;FR
2298;Taillebourg;taillebourg;45.8305696;-0.6451123;FR
2299;Pons;pons;45.5780767;-0.5389124;FR
2300;Clion-sur-Seugne;clion-sur-seugne;45.4783225;-0.502092;FR
2301;Jonzac;jonzac;45.4387456;-0.44164;FR
2302;Fontaines-d’Ozillac;fontaines-dozillac;45.3872162;-0.3836092;FR
2303;Montendre;montendre;45.2805457;-0.3961726;FR
2304;Bussac-Forêt;bussac-foret;45.211928;-0.3682457;FR
2305;St-Mariens – St-Yzan;st-mariens-st-yzan;45.139072;-0.3917824;FR
2306;Cavignac;cavignac;45.105163;-0.382243;FR
2307;Gauriaguet;gauriaguet;45.0542936;-0.3992689;FR
2308;Aubie – St-Antoine;aubie-st-antoine;45.0151419;-0.4198843;FR
2309;St-André-de-Cubzac;st-andre-de-cubzac;44.991255;-0.440479;FR
2310;Villeneuve-la-Comtesse;villeneuve-la-comtesse;46.0986599;-0.5130717;FR
2311;Cubzac-les-Ponts;cubzac-les-ponts;44.9729407;-0.4590937;FR
2312;Nancy;nancy;48.689861;6.174583;FR
2313;La Grave-d’Ambarès;la-grave-dambares;44.9356421;-0.477021;FR
2314;Ste-Eulalie – Carbon-Blanc;ste-eulalie-carbon-blanc;44.8978327;-0.4939737;FR
2315;Loulay;loulay;46.0435165;-0.5017525;FR
2316;St-Hilaire – Brizambourg;st-hilaire-brizambourg;45.85007;-0.5347155;FR
2317;St-Jean-d’Angély;st-jean-dangely;45.9407739;-0.5097829;FR
2318;Jarnac-Charente;jarnac-charente;45.6711292;-0.1777613;FR
2319;Châteauneuf-sur-Charente;chateauneuf-sur-charente;45.599836;-0.0502;FR
2320;Barbézieux;barbezieux;45.4500000000;-0.1333330000;FR
2321;Saujon;saujon;45.6665019;-0.9300187;FR
2324;L’Habitarelle;lhabitarelle;44.63325;3.67616;FR
2325;Larroque;larroque;44.5166670000;1.9500000000;FR
2326;Asasp;asasp;43.1166670000;-0.6166670000;FR
2328;Bidos;bidos;43.17892;-0.60690;FR
2329;St-Pierre-du-Mont;st-pierre-du-mont;43.8845320000;-0.5218510000;FR
2330;Baladou;baladou;44.9166670000;1.5666670000;FR
2331;Somport;somport;42.789201;-0.54631;FR
2334;Ayron;ayron;46.6666670000;0.0666670000;FR
2335;Angerville;angerville;48.3166670000;2.0000000000;FR
2339;Cercottes;cercottes;47.9861553;1.8849813;FR
2340;Chevilly;chevilly;48.0266215;1.8793013;FR
2341;Artenay;artenay;48.0808761;1.8833705;FR
2342;Château-Gaillard;chateau-gaillard;48.1416904;1.9128148;FR
2343;Épinal;epinal;48.178005;6.441787;FR
2344;Toury;toury;48.193606;1.939565;FR
2345;Boisseaux;boisseaux;48.2566238;1.9727681;FR
2346;Angerville;angerville;48.3112062;2.0034931;FR
2347;La Ferté-St-Aubin;la-ferte-st-aubin;47.720975;1.932360;FR
2348;Lamotte-Beuvron;lamotte-beuvron;47.593898;2.022499;FR
2349;Nouan-le-Fuzelier;nouan-le-fuzelier;47.5337788;2.0330957;FR
2351;Theillay;theillay;47.3139904;2.0443867;FR
2354;Epuisay;epuisay;47.9000000000;0.9333330000;FR
2355;Monnerville;monnerville;48.3500000000;2.0500000000;FR
2358;Guillerval;guillerval;48.3666670000;2.1000000000;FR
2362;Monnerville;monnerville;48.3484915;2.0320595;FR
2363;Guillerval;guillerval;48.3744455;2.0598748;FR
2369;Brétigny;bretigny;48.606683;2.302378;FR
2388;Auneau;auneau;48.4458242;1.77998;FR
2390;Voves;voves;48.2750095;1.6222874;FR
2391;Bonneval;bonneval;48.1862958;1.3861845;FR
2394;Err;err;42.442777;2.0290375;FR
2406;Vendôme – Villiers-sur-Loir;vendome-villiers-sur-loir;47.821937;1.021143;FR
2407;Montbazon;montbazon;47.2917191;0.7214769;FR
2408;Veigné;veigne;47.2915255;0.7348815;FR
2409;Esvres-sur-Indre;esvres-sur-indre;47.2841016;0.7816519;FR
2410;Cormery;cormery;47.262540;0.833953;FR
2411;Courçay – Tauxigny;courcay-tauxigny;47.2377076;0.867867;FR
2412;Reignac;reignac;47.2178494;0.9013322;FR
2413;Loches;loches;47.130464;1.000467;FR
2414;Perrusson;perrusson;47.1000000000;1.0000000000;FR
2415;St-Jean-en-Touraine;st-jean-en-touraine;47.080912;1.021651;FR
2416;Etaples – Le Touquet;etaples-le-touquet;50.51686;1.64231;FR
2417;St-Antoine-du-Rocher;st-antoine-du-rocher;47.503839;0.6164676;FR
