id;name;uic;lat;lon;country
14563;Vejprty (Gr);vejprty-gr;50.500984;13.034103;CZ
17503;Brno hl.n.;brno-hl-n;49.190537;16.612775;CZ
17505;Děčín hl.n.;decin-hl-n;50.773411;14.201248;CZ
17506;Karlovy Vary;karlovy-vary;50.235668;12.866853;CZ
17507;Liberec;liberec;50.761429;15.045946;CZ
17508;Olomouc hl.n.;olomouc-hl-n;49.593128;17.277932;CZ
17509;Praha hl.n.;praha-hl-n;50.083058;14.436037;CZ
17510;Teplice v Čechách;teplice-v-cechach;50.646762;13.828807;CZ
17511;Ústí nad Labem hl.n.;usti-nad-labem-hl-n;50.659563;14.044728;CZ
17587;Praha;praha;50.0819250000;14.4514810000;CZ
17588;Praha hl.n. Wilsonova;praha-hl-n-wilsonova;50.0833720000;14.4346170000;CZ
18577;Plzeň hl.n.;plzen-hl-n;49.7431670000;13.3882460000;CZ
18578;Kolín;kolin;50.0254010000;15.2135320000;CZ
18579;Česka Lípa hl.n.;ceska-lipa-hl-n;50.6790790000;14.5409500000;CZ
18580;Praha-Libeň;praha-liben;50.1012610000;14.5014340000;CZ
18581;Pardubice hl.n.;pardubice-hl-n;50.0312620000;15.7587100000;CZ
18582;Praha-Holešovice;praha-holesovice;50.1102140000;14.4400100000;CZ
18583;Praha-Smíchov;praha-smichov;50.0614840000;14.4088720000;CZ
18584;Praha-Vršovice;praha-vrsovice;50.0611690000;14.4570630000;CZ
18585;Praha-Dejvice;praha-dejvice;50.0972880000;14.3996850000;CZ
18586;Nove Údolí;nove-udoli;48.8314810000;13.7955650000;CZ
18587;Praha-Bubeneč;praha-bubenec;50.1073290000;14.4086290000;CZ
18588;Praha-Bubny;praha-bubny;50.1003890000;14.4240640000;CZ
18589;Praha-Smíchov sev.n.;praha-smichov-sev-n;50.0632280000;14.4063640000;CZ
18590;Praha-Strašnice zastávka;praha-strasnice-zastavka;50.0629670000;14.4958960000;CZ
18591;Praha-Zbraslav;praha-zbraslav;49.9681400000;14.4023550000;CZ
18592;Praha Nádraží Holešovice (M);praha-nadrazi-holesovice-m;50.1102140000;14.4400100000;CZ
18593;Praha Smíchovské nádraží (M);praha-smichovske-nadrazi-m;50.0607830000;14.4078110000;CZ
18594;Praha Náměstí Republiky (M);praha-namesti-republiky-m;50.0883700000;14.4324510000;CZ
22627;Klatovy;klatovy;49.401487;13.27411;CZ
22628;Břeclav;breclav;48.753904;16.893239;CZ
22629;Domažlice;domazlice;49.434693;12.944583;CZ
22630;Cheb;cheb;50.073493;12.380699;CZ
23005;Praha Masarykovo n.;praha-masarykovo-n;50.087734;14.433003;CZ
23612;Chomutov;chomutov;50.4566;13.39958;CZ
27862;Adamov;adamov;49.295649;16.662894;CZ
27863;Bakov nad Jizerou;bakov-nad-jizerou;50.479032;14.939258;CZ
27864;Bělá pod Bezdězem;bela-pod-bezdezem;50.488382;14.835583;CZ
27865;Bělčice;belcice;49.504267;13.885902;CZ
27866;Benešov nad Ploučnicí;benesov-nad-ploucnici;50.7386;14.304971;CZ
27867;Benešov u Prahy;benesov-u-prahy;49.779843;14.683052;CZ
27868;Beroun;beroun;49.957493;14.075787;CZ
27869;Bílina;bilina;50.554124;13.772829;CZ
27870;Blansko;blansko;49.35415;16.644475;CZ
27871;Blatná;blatna;49.43084;13.872879;CZ
27872;Blatno u Jesenice;blatno-u-jesenice;50.100062;13.390159;CZ
27873;Blížejov;blizejov;49.501404;12.994872;CZ
27874;Bludov;bludov;49.927767;16.938552;CZ
27875;Bludov lázně;bludov-lazne;49.941297;16.90252;CZ
27876;Bělotín;belotin;49.584363;17.799242;CZ
27877;Biskupice u Luhačovic;biskupice-u-luhacovic;49.077194;17.716619;CZ
27878;Blažovice;blazovice;49.163912;16.798843;CZ
27879;Bohutice;bohutice;48.987959;16.356028;CZ
27880;Bojkovice;bojkovice;49.035985;17.79555;CZ
27881;Branná;branna;50.147004;17.014842;CZ
27882;Bohuslavice u Kyjova;bohuslavice-u-kyjova;49.054471;17.11918;CZ
27883;Brankovice;brankovice;49.150354;17.133729;CZ
27884;Brniště;brniste;50.716476;14.728819;CZ
27885;Brno-Slatina;brno-slatina;49.16831;16.682704;CZ
27886;Brno-Královo Pole;brno-kralovo-pole;49.23055;16.596175;CZ
27887;Bruntál;bruntal;49.993842;17.474369;CZ
27888;Břest Nadrazi;brest-nadrazi;49.349315;17.45536;CZ
27889;Březno u Chomutova;brezno-u-chomutova;50.396153;13.421118;CZ
27890;Brumov;brumov;49.461739;16.426646;CZ
27891;Březnice;breznice;49.558057;13.963859;CZ
27892;Bučovice;bucovice;49.145653;16.999554;CZ
27893;Bylnice;bylnice;49.067458;18.014216;CZ
27894;Bystrice pod Hostýnem;bystrice-pod-hostynem;49.393203;17.665671;CZ
27895;Bzenec;bzenec;48.969183;17.263244;CZ
27896;Mariánské Lázně;marianske-lazne;49.957058;12.695051;CZ
27897;Čáslav;caslav;49.914973;15.394518;CZ
27898;Častolovice;castolovice;50.128352;16.173844;CZ
27899;Čerčany;cercany;49.851434;14.702051;CZ
27900;Česka Kamenice;ceska-kamenice;50.795868;14.414092;CZ
27901;Bohumín;bohumin;49.901053;18.35892;CZ
27902;Česka Metuje;ceska-metuje;50.55234;16.184631;CZ
27903;České Velenice;ceske-velenice;48.769623;14.957364;CZ
27904;Česky Těšín;cesky-tesin;49.743626;18.622847;CZ
27905;Číčenice;cicenice;49.153576;14.221632;CZ
27906;Čimelice;cimelice;49.470355;14.076594;CZ
27907;Čížova;cizova;49.353744;14.097735;CZ
27908;Chlumec nad Cidlinou;chlumec-nad-cidlinou;50.163555;15.457187;CZ
27909;Choceň;chocen;49.993758;16.22398;CZ
27910;Chodov;chodov;50.031596;14.490891;CZ
27911;Chomutov Město;chomutov-mesto;50.469866;13.414047;CZ
27912;Chotěboř;chotebor;49.711926;15.682627;CZ
27913;Chrast u Chrudimi;chrast-u-chrudimi;49.901399;15.910726;CZ
27914;Chrudim;chrudim;49.948249;15.787034;CZ
27915;Dětmarovice;detmarovice;49.900106;18.466075;CZ
27916;Děčín Východ;decin-vychod;50.77591;14.223098;CZ
27917;Dobronín;dobronin;49.478235;15.641905;CZ
27918;Dobřany;dobrany;49.656505;13.303154;CZ
27919;Dolní Lipka;dolni-lipka;50.089319;16.7214;CZ
27920;Dolní Žleb;dolni-zleb;50.846135;14.215436;CZ
27921;Domašov nad Bystrici;domasov-nad-bystrici;49.740171;17.444527;CZ
27922;Doudleby nad Orlici;doudleby-nad-orlici;50.109584;16.258282;CZ
27923;Duchcov;duchcov;50.617455;13.754508;CZ
27924;Dvůr Králové nad Labem;dvur-kralove-nad-labem;50.413802;15.798301;CZ
27925;Drahotuse;drahotuse;49.552404;17.682486;CZ
27926;Františkovy Lázně;frantiskovy-lazne;50.124453;12.355322;CZ
27927;Frenštát pod Radhoštěm;frenstat-pod-radhostem;49.542222;18.223471;CZ
27928;Frydek-Mistek;frydek-mistek;49.677797;18.353617;CZ
27929;Frýdlant nad Ostravici;frydlant-nad-ostravici;49.589343;18.353833;CZ
27930;Golčův Jeníkov Město;golcuv-jenikov-mesto;49.821867;15.473545;CZ
27931;Zlín Střed;zlin-stred;49.226386;17.658176;CZ
27932;Zlín-Louky;zlin-louky;49.216489;17.623693;CZ
27933;Zlín-Malenovice;zlin-malenovice;49.20981;17.599359;CZ
27934;Zlín-Malenovice Zastávka;zlin-malenovice-zastavka;49.20554;17.573794;CZ
27935;Zlin-Prstne;zlin-prstne;49.219932;17.64062;CZ
27936;Hanušovice;hanusovice;50.071704;16.929483;CZ
27937;Havířov;havirov;49.791753;18.412038;CZ
27938;Havlíčkův Brod;havlickuv-brod;49.599258;15.5876;CZ
27939;Hlinsko v Čechách;hlinsko-v-cechach;49.766521;15.901962;CZ
27940;Hluboká nad Vltavou-Zámostí;hluboka-nad-vltavou-zamosti;49.05062;14.464156;CZ
27941;Hodkovice nad Mohelkou;hodkovice-nad-mohelkou;50.667689;15.099999;CZ
27942;Hodonín;hodonin;48.856615;17.122598;CZ
27943;Holešov;holesov;49.327155;17.570899;CZ
27944;Holýšov;holysov;49.59755;13.101373;CZ
27945;Horažďovice Předměstí;horazdovice-predmesti;49.331254;13.739373;CZ
27946;Horní Cerekev;horni-cerekev;49.311172;15.324594;CZ
27947;Horní Moštěnice Zastávka;horni-mostenice-zastavka;49.415546;17.452529;CZ
27948;Horní Branná;horni-branna;50.596728;15.587034;CZ
27949;Horní Lideč;horni-lidec;49.188748;18.058313;CZ
27950;Horní Lipova;horni-lipova;50.224557;17.08283;CZ
27951;Horní Suchá;horni-sucha;49.792985;18.48841;CZ
27952;Hořice v Podkrkonoší;horice-v-podkrkonosi;50.356276;15.634956;CZ
27953;Hořovice;horovice;49.843325;13.899183;CZ
27954;Hostinné;hostinne;50.53668;15.73799;CZ
27955;Hradčovice;hradcovice;49.044381;17.574693;CZ
27956;Hladké Životice;hladke-zivotice;49.677941;17.985122;CZ
27957;Hradec Králové hlavní nádraží;hradec-kralove-hlavni-nadrazi;50.214444;15.809868;CZ
27958;Hrádek nad Nisou;hradek-nad-nisou;50.855006;14.847599;CZ
27959;Hranice na Moravě;hranice-na-morave;49.565549;17.741596;CZ
27960;Hronov;hronov;50.473199;16.176726;CZ
27961;Hrubá Voda;hruba-voda;49.669779;17.438596;CZ
27962;Hrušovany nad Jevišovkou;hrusovany-nad-jevisovkou;48.810248;16.383613;CZ
27963;Hulín;hulin;49.316251;17.476818;CZ
27964;Ivanovice na Hané;ivanovice-na-hane;49.306561;17.088089;CZ
27965;Jablonné nad Orlici;jablonne-nad-orlici;50.0263;16.594365;CZ
27966;Jablonné v Podještědí;jablonne-v-podjestedi;50.769447;14.758121;CZ
27967;Jablunkov;jablunkov;49.589955;18.754635;CZ
27968;Jaroměř;jaromer;50.342109;15.911311;CZ
27969;Jaroměřice nad Rokytnou;jaromerice-nad-rokytnou;49.094146;15.865583;CZ
27970;Jedlová;jedlova;50.842736;14.570327;CZ
27971;Jeřmanice;jermanice;50.707422;15.08638;CZ
27972;Jeseník;jesenik;50.227847;17.194135;CZ
27973;Jeseník nad Odrou;jesenik-nad-odrou;49.615295;17.902008;CZ
27974;Jestřabice;jestrabice;49.088959;17.112764;CZ
27975;Jistebník;jistebnik;49.749145;18.151081;CZ
27976;Jičín;jicin;50.430419;15.361216;CZ
27977;Jindřichov na Moravě;jindrichov-na-morave;50.099652;16.990088;CZ
27978;Jihlava;jihlava;49.414449;15.599044;CZ
27979;Jince;jince;49.782162;13.987404;CZ
27980;Jindřichov ve Slezsku;jindrichov-ve-slezsku;50.248576;17.538574;CZ
27981;Jindřichův Hradec;jindrichuv-hradec;49.155218;15.004848;CZ
27982;Jirkov Zastávka;jirkov-zastavka;50.485694;13.447664;CZ
27983;Kadaň;kadan;50.411344;13.258145;CZ
27984;Kalná Voda;kalna-voda;50.600387;15.872801;CZ
27985;Karlovy Vary-Dvory;karlovy-vary-dvory;50.228818;12.831409;CZ
27986;Karviná hlavní nádraží;karvina-hlavni-nadrazi;49.855469;18.527046;CZ
27987;Kladno;kladno;50.127923;14.113405;CZ
27988;Klášterec nad Ohři;klasterec-nad-ohri;50.385014;13.196389;CZ
27989;Kojetín;kojetin;49.345421;17.304702;CZ
27990;Kopidlno;kopidlno;50.333965;15.260465;CZ
27991;Kostelec u Jihlavy;kostelec-u-jihlavy;49.357215;15.48213;CZ
27992;Kostelec nad Orlici Město;kostelec-nad-orlici-mesto;50.119779;16.205123;CZ
27993;Krásna Lípa;krasna-lipa;50.919019;14.512293;CZ
27994;Kralupy nad Vltavou;kralupy-nad-vltavou;50.238724;14.313469;CZ
27995;Krnov;krnov;50.089269;17.683274;CZ
27996;Kroměříž;kromeriz;49.302327;17.403394;CZ
27997;Křinec;krinec;50.265988;15.143605;CZ
27998;Křižanov;krizanov;49.384767;16.08038;CZ
27999;Kunčice nad Labem;kuncice-nad-labem;50.583757;15.62291;CZ
28000;Kunovice;kunovice;49.05195;17.470067;CZ
28001;Kunovice-Loucká;kunovice-loucka;49.440194;17.818795;CZ
28002;Kunovice Zastávka;kunovice-zastavka;49.038233;17.460988;CZ
28003;Křenovice dolní nádraží;krenovice-dolni-nadrazi;49.145177;16.833487;CZ
28004;Kutna Hora hlavní nádraží;kutna-hora-hlavni-nadrazi;49.961838;15.300853;CZ
28005;Kyjov;kyjov;49.016218;17.122841;CZ
28006;Kyjov Zastávka;kyjov-zastavka;49.003867;17.12285;CZ
28007;Křižanovice;krizanovice;49.14506;16.93449;CZ
28008;Lázně Bělohrad;lazne-belohrad;50.426095;15.57738;CZ
28009;Lázně Kynžvart;lazne-kynzvart;49.993256;12.614211;CZ
28010;Letohrad;letohrad;50.031514;16.507592;CZ
28011;Letovice;letovice;49.555436;16.571056;CZ
28012;Libuň;libun;50.489937;15.303361;CZ
28013;Lichkov;lichkov;50.097234;16.658629;CZ
28014;Lipník nad Bečvou;lipnik-nad-becvou;49.529259;17.572652;CZ
28015;Lipova Lázně;lipova-lazne;50.228683;17.131713;CZ
28016;Lipova Lázně Zastávka;lipova-lazne-zastavka;50.229681;17.160101;CZ
28017;Litoměřice horní nádraží;litomerice-horni-nadrazi;50.540995;14.131609;CZ
28018;Litoměřice Město;litomerice-mesto;50.532483;14.138836;CZ
28019;Lochovice;lochovice;49.846426;13.974297;CZ
28020;Lomnice nad Popelkou;lomnice-nad-popelkou;50.526846;15.374295;CZ
28021;Louny;louny;50.361292;13.823207;CZ
28022;Louny Předměstí;louny-predmesti;50.343387;13.767876;CZ
28023;Lovosice;lovosice;50.509713;14.059587;CZ
28024;Luhačovice;luhacovice;49.098811;17.751637;CZ
28025;Luka nad Jihlavou;luka-nad-jihlavou;49.369575;15.709962;CZ
28026;Luzná u Rakovníka;luzna-u-rakovnika;50.144931;13.77026;CZ
28027;Lysá nad Labem;lysa-nad-labem;50.195801;14.841684;CZ
28028;Mala Skala;mala-skala;50.634546;15.192138;CZ
28029;Marefy;marefy;49.149438;16.973081;CZ
28030;Martinice v Krkonoších;martinice-v-krkonosich;50.580701;15.541162;CZ
28031;Město Albrechtice;mesto-albrechtice;50.168096;17.578639;CZ
28032;Mělník;melnik;50.353336;14.491761;CZ
28033;Meziměstí;mezimesti;50.626564;16.243049;CZ
28034;Mikulovice;mikulovice;50.302458;17.320145;CZ
28035;Milevsko;milevsko;49.441731;14.377832;CZ
28036;Milotice nad Opavou;milotice-nad-opavou;50.014191;17.557595;CZ
28037;Mimoň;mimon;50.657954;14.714703;CZ
28038;Miroslav;miroslav;48.935495;16.36265;CZ
28039;Mirovice;mirovice;49.50987;14.034453;CZ
28040;Milín;milin;49.632348;14.021886;CZ
28041;Milovice;milovice;50.229106;14.88174;CZ
28042;Mladá Boleslav hlavní nádraží;mlada-boleslav-hlavni-nadrazi;50.407398;14.886945;CZ
28043;Mnichovo Hradiště;mnichovo-hradiste;50.518504;14.978545;CZ
28044;Moravské Budějovice;moravske-budejovice;49.057559;15.809373;CZ
28045;Moravsky Beroun;moravsky-beroun;49.784499;17.432501;CZ
28046;Moravsky Krumlov;moravsky-krumlov;49.046278;16.337984;CZ
28047;Moravsky Písek;moravsky-pisek;48.9776;17.314977;CZ
28048;Most;most;50.511214;13.657419;CZ
28049;Náchod;nachod;50.417241;16.170659;CZ
28050;Namést nad Oslavou;namest-nad-oslavou;49.206996;16.147547;CZ
28051;Nepomuk;nepomuk;49.497581;13.608724;CZ
28052;Neratovice;neratovice;50.262671;14.517498;CZ
28053;Nezamyslice;nezamyslice;49.335659;17.161342;CZ
28054;Nezdenice;nezdenice;49.022295;17.748841;CZ
28055;Nemotice;nemotice;49.133024;17.114373;CZ
28056;Nesovice;nesovice;49.149195;17.080996;CZ
28057;Nevojice;nevojice;49.137087;17.048338;CZ
28058;Návojná;navojna;49.100357;18.044334;CZ
28059;Nove Losiny;nove-losiny;50.116444;17.005658;CZ
28060;Nova Paka Město;nova-paka-mesto;50.494557;15.512639;CZ
28061;Nove Město nad Metuji;nove-mesto-nad-metuji;50.353363;16.137785;CZ
28062;Novy Bydžov;novy-bydzov;50.244891;15.485833;CZ
28063;Nove Sedlo u Lokte;nove-sedlo-u-lokte;50.214031;12.745229;CZ
28064;Nymburk hlavní nádraží;nymburk-hlavni-nadrazi;50.193391;15.045425;CZ
28065;Nymburk Město;nymburk-mesto;50.18442;15.033505;CZ
28066;Nýřany;nyrany;49.715057;13.209612;CZ
28067;Obrataň;obratan;49.42867;14.953483;CZ
28068;Obrnice;obrnice;50.504175;13.700531;CZ
28069;Okrisky;okrisky;49.247969;15.770872;CZ
28070;Olbramovice;olbramovice;49.666956;14.624146;CZ
28071;Opava Východ;opava-vychod;49.934745;17.908139;CZ
28072;Opava Západ;opava-zapad;49.938619;17.888677;CZ
28073;Opočno pod Orlickými Horami;opocno-pod-orlickymi-horami;50.278492;16.085845;CZ
28074;Ostrava-Kunčice;ostrava-kuncice;49.790926;18.291924;CZ
28075;Ostrava-Svinov;ostrava-svinov;49.821391;18.21023;CZ
28076;Ostrava-Mariánské Hory;ostrava-marianske-hory;49.836933;18.240344;CZ
28077;Ostrava-Vítkovice;ostrava-vitkovice;49.801803;18.262898;CZ
28078;Ostravice;ostravice;49.537655;18.393349;CZ
28079;Ostroměř;ostromer;50.368978;15.54465;CZ
28080;Ostrov nad Ohři;ostrov-nad-ohri;50.301577;12.957366;CZ
28081;Ostrožská Nova Ves;ostrozska-nova-ves;49.009944;17.436798;CZ
28082;Ostružna;ostruzna;50.183863;17.050559;CZ
28083;Otrokovice;otrokovice;49.20234;17.531706;CZ
28084;Pacov;pacov;49.459593;15.019159;CZ
28085;Pelhřimov;pelhrimov;49.419438;15.222351;CZ
28086;Petrovice u Karviné;petrovice-u-karvine;49.894257;18.549474;CZ
28087;Písečná;pisecna;50.278852;17.260079;CZ
28088;Písek;pisek;49.296502;14.142971;CZ
28089;Planá u Mariánských Lázní;plana-u-marianskych-lazni;49.861294;12.730145;CZ
28090;Plasy;plasy;49.930879;13.379922;CZ
28091;Plzeň Jižní Předměstí;plzen-jizni-predmesti;49.740344;13.36686;CZ
28092;Pocatky-Zirovnice;pocatky-zirovnice;49.237029;15.212481;CZ
28093;Podbořany;podborany;50.223523;13.40457;CZ
28094;Poděbrady;podebrady;50.149713;15.123469;CZ
28095;Police nad Metuji;police-nad-metuji;50.513183;16.212108;CZ
28096;Polom;polom;49.574385;17.855777;CZ
28097;Polichno;polichno-cz;49.068355;17.711068;CZ
28098;Potštejn;potstejn;50.083516;16.315448;CZ
28099;Potůčník;potucnik;50.080082;16.963489;CZ
28100;Popovice u Uherského Hradiště;popovice-u-uherskeho-hradiste;49.046071;17.527814;CZ
28101;Poteč;potec;49.154256;18.042483;CZ
28102;Praha-Vysočany;praha-vysocany;50.112318;14.497497;CZ
28103;Prosenice;prosenice;49.503155;17.484747;CZ
28104;Prostějov hlavní nádraží;prostejov-hlavni-nadrazi;49.472367;17.129556;CZ
28105;Protivín;protivin;49.212839;14.210543;CZ
28106;Přerov;prerov;49.446352;17.446174;CZ
28107;Přeštice;prestice;49.575131;13.322624;CZ
28108;Příbram;pribram;49.688845;14.003207;CZ
28109;Říkovice;rikovice;49.379005;17.453698;CZ
28110;Radomyšl;radomysl;49.320278;13.948687;CZ
28111;Rakovník;rakovnik;50.099023;13.73629;CZ
28112;Ramzová;ramzova;50.193805;17.063566;CZ
28113;Razice;razice;49.24476;14.108497;CZ
28114;Rokycany;rokycany;49.74038;13.591743;CZ
28115;Rosice nad Labem;rosice-nad-labem;50.045555;15.742745;CZ
28116;Roudnice nad Labem;roudnice-nad-labem;50.426599;14.263831;CZ
28117;Rousínov;rousinov;49.19736;16.868347;CZ
28118;Rožnov pod Radhoštěm;roznov-pod-radhostem;49.460456;18.134622;CZ
28119;Ruda nad Moravou;ruda-nad-moravou;49.983547;16.888735;CZ
28120;Rumburk;rumburk;50.956836;14.550812;CZ
28121;Rybniště;rybniste;50.88308;14.509803;CZ
28122;Rychnov u Jablonce nad Nisou;rychnov-u-jablonce-nad-nisou;50.683789;15.143138;CZ
28123;Řetenice;retenice;50.642645;13.800922;CZ
28124;Sedlice;sedlice;49.384578;13.936722;CZ
28125;Semily;semily;50.603425;15.324055;CZ
28126;Skalice nad Svitavou;skalice-nad-svitavou;49.480682;16.609377;CZ
28127;Skrbovice;skrbovice;50.052117;17.484351;CZ
28128;Skrochovice;skrochovice;50.018407;17.776923;CZ
28129;Slaný;slany;50.228333;14.075687;CZ
28130;Slavičín;slavicin;49.074297;17.899779;CZ
28131;Slavkov u Brna;slavkov-u-brna;49.145015;16.873777;CZ
28132;Soběslav;sobeslav;49.255259;14.726074;CZ
28133;Sokolov;sokolov;50.186164;12.644155;CZ
28134;Stara Paka;stara-paka;50.516176;15.486553;CZ
28135;Staré Město u Uherské Hradiště;stare-mesto-u-uherske-hradiste;49.076572;17.423108;CZ
28136;Staré Splavy;stare-splavy;50.587398;14.629314;CZ
28137;Stod;stod;49.640078;13.155596;CZ
28138;Strakonice;strakonice;49.255349;13.916623;CZ
28139;Stříbro;stribro;49.740838;13.000208;CZ
28140;Studenec;studenec;49.222458;16.069036;CZ
28141;Studénka;studenka;49.707381;18.066619;CZ
28142;Suchdol nad Odrou;suchdol-nad-odrou;49.641993;17.938855;CZ
28143;Sušice;susice;49.246791;13.541799;CZ
28144;Světla nad Sázavou;svetla-nad-sazavou;49.670534;15.416904;CZ
28145;Svitavy;svitavy;49.758916;16.479636;CZ
28146;Svoboda nad Úpou;svoboda-nad-upou;50.621691;15.82052;CZ
28147;Šternberk;sternberk;49.720766;17.285959;CZ
28148;Šlapanice;slapanice;49.156881;16.729509;CZ
28149;Šumice;sumice;49.030016;17.724121;CZ
28150;Sumna;sumna;48.923126;15.87432;CZ
28151;Šumperk;sumperk;49.961811;16.983104;CZ
28152;Švihov u Klatov;svihov-u-klatov;49.47394;13.29074;CZ
28153;Tábor;tabor;49.414081;14.67755;CZ
28154;Teplice nad Metuji;teplice-nad-metuji;50.58133;16.178291;CZ
28155;Tlumačov;tlumacov;49.254064;17.501314;CZ
28156;Tišnov;tisnov;49.346841;16.418285;CZ
28157;Tršnice;trsnice;50.112722;12.398452;CZ
28158;Třebenice;trebenice;50.473837;14.00063;CZ
28159;Trutnov hl.n.;trutnov-hl-n;50.565329;15.910772;CZ
28160;Třebechovice pod Orebem;trebechovice-pod-orebem;50.200016;15.982335;CZ
28161;Třebíč;trebic;49.211455;15.884784;CZ
28162;Třeboň;trebon;49.016272;14.760188;CZ
28163;Třemešná ve Slezsku;tremesna-ve-slezsku;50.199864;17.573794;CZ
28164;Třinec;trinec;49.688009;18.661282;CZ
28165;Turnov;turnov;50.586975;15.139066;CZ
28166;Tyniste nad Orlici;tyniste-nad-orlici;50.15472;16.074609;CZ
28167;Uherské Hradiště;uherske-hradiste;49.066773;17.457285;CZ
28168;Uhersky Ostroh;uhersky-ostroh;48.981978;17.403421;CZ
28169;Uhersky Brod;uhersky-brod;49.021818;17.643829;CZ
28170;Újezdec u Luhačovic;ujezdec-u-luhacovic;49.033172;17.685943;CZ
28171;Uničov;unicov;49.77924;17.115722;CZ
28172;Ústi nad Labem-Strekov;usti-nad-labem-strekov;50.649792;14.048377;CZ
28173;Ústi nad Labem Západ;usti-nad-labem-zapad;50.658394;14.031019;CZ
28174;Ústi nad Orlici;usti-nad-orlici;49.971322;16.378417;CZ
28175;Valašské Příkazy;valasske-prikazy;49.165897;18.063607;CZ
28176;Valašské Klobouky;valasske-klobouky;49.142211;18.022473;CZ
28177;Valašské Meziříčí;valasske-mezirici;49.474614;17.960438;CZ
28178;Valšov;valsov;49.933648;17.437068;CZ
28179;Varnsdorf;varnsdorf;50.903377;14.63887;CZ
28180;Velky Osek;velky-osek;50.099616;15.194116;CZ
28181;Veselí nad Lužnici;veseli-nad-luznici;49.193791;14.717013;CZ
28182;Veselí nad Moravou;veseli-nad-moravou;48.949033;17.382557;CZ
28183;Voltanov;voltanov;50.167754;12.327483;CZ
28184;Vraz u Písku;vraz-u-pisku;49.391877;14.12475;CZ
28185;Vrchlabí;vrchlabi;50.618761;15.623198;CZ
28186;Vlkoš;vlkos;48.987911;17.165729;CZ
28187;Vešky;vesky;49.042763;17.50206;CZ
28188;Vracov;vracov;48.976531;17.220608;CZ
28189;Vsetín;vsetin;49.335425;17.994444;CZ
28190;Všetaty;vsetaty;50.282025;14.584755;CZ
28191;Výškov na Moravě;vyskov-na-morave;49.278451;16.9915;CZ
28192;Záhorovice;zahorovice;49.021207;17.777139;CZ
28193;Zastávka u Brna;zastavka-u-brna;49.1874;16.358641;CZ
28194;Zdice;zdice;49.907732;13.979304;CZ
28195;Zlonice;zlonice;50.284938;14.078204;CZ
28196;Zahlinice;zahlinice;49.291908;17.491165;CZ
28197;Znojmo;znojmo;48.852596;16.058815;CZ
28198;Zbiroh;zbiroh;49.83292;13.786026;CZ
28199;Žamberk;zamberk;50.073772;16.450115;CZ
28200;Zateč;zatec;50.33659;13.555166;CZ
28201;Zateč Západ;zatec-zapad;50.338253;13.534851;CZ
28202;Zdar nad Sázavou;zdar-nad-sazavou;49.55398;15.939088;CZ
28203;Zdarec u Skutče;zdarec-u-skutce;49.82647;15.977903;CZ
28204;Železná Ruda Město;zelezna-ruda-mesto;49.143092;13.229325;CZ
28205;Železný Brod;zelezny-brod;50.63994;15.265706;CZ
28206;České Budějovice;ceske-budejovice;48.974616;14.48875;CZ
28207;Česka Třebová;ceska-trebova;49.897323;16.446807;CZ
28208;Ostrava hlavní nádraží;ostrava-hlavni-nadrazi;49.852089;18.267258;CZ
28209;Zábřeh na Moravě;zabreh-na-morave;49.87227;16.887216;CZ
29023;Ostrava;ostrava;49.8209226;18.2625243;CZ
29027;Ústí nad Labem;usti-nad-labem;50.6581573486;14.039440155;CZ
29280;Plzeň;plzen;49.746502;13.362379;CZ
29303;Třinec centrum;trinec-centrum;49.671685;18.679987;CZ
29304;Bystřice;bystrice;49.636364;18.717148;CZ
29312;Olomouc;olomouc;49.593128;17.277932;CZ
29314;Brno;brno;49.190537;16.612775;CZ
29315;Vyšší Brod;vyssi-brod;48.6055521;14.3127405;CZ
29316;Zlin;zlin;49.2240465;17.6608413;CZ
29318;Lipno;lipno;48.6209337;14.2456044;CZ
29319;Český Krumlov;cesky-krumlov;48.8171393;14.3082496;CZ
29329;Benesov;benesov;49.7839125;14.6760564;CZ
32273;Lubenec;lubenec;50.1320822;13.3132014;CZ
33327;Praha Airport (Václav Havel);praha-airport-vaclav-havel;50.1063864;14.2687786;CZ
33363;Mikulov;mikulov;48.802355;16.626084;CZ
33381;Horní Plána;horni-plana;48.7673652;14.0325721;CZ
33592;Tarifpunkt 92 Wullowitz Staatsgrenze;tarifpunkt-92-wullowitz-staatsgrenze;48.644553;14.454119;CZ
34678;Frymburk;frymburk;48.66401291;14.1683569;CZ
34679;Holohlavy;holohlavy;50.30874634;15.85939884;CZ
34680;Humpolec;humpolec;49.53835678;15.34851933;CZ
34681;Jilemnice;jilemnice;50.60676956;15.50666523;CZ
34682;Navsi;navsi;49.59014893;18.75483322;CZ
34683;Telč;telc;49.18201828;15.4640255;CZ
34684;Příbor;pribor;49.640621185;18.140680315;CZ
34687;Ceska Skalice;ceska-skalice;50.39493942;16.0434761;CZ
34690;Špindlerův Mlýn;spindleruv-mlyn;50.720035555;15.5938282;CZ
34699;Loučovice;loucovice;48.61962509;14.26056004;CZ
34700;Vroutek;vroutek;50.13205338;13.31245041;CZ
34701;Novy Jicin;novy-jicin;49.59700012;18.01003647;CZ
34702;Pavlice;pavlice;48.97267151;15.89602184;CZ
34703;Vranovská Ves;vranovska-ves;48.9489975;15.92043877;CZ
34704;Rožmberk nad Vltavou;rozmberk-nad-vltavou;48.65501404;14.36684322;CZ
34705;Zeletava;zeletava;49.14225769;15.67281342;CZ
34713;Černá v Pošumaví;cerna-v-posumavi;48.73810196;14.10913467;CZ
35147;Zábřeh;zabreh;48.86687088;16.03564835;CZ
35782;Harrachov;harrachov;50.7720863;15.4314213;CZ
35791;Kořenov;korenov;50.7592589;15.3653237;CZ
35804;Smržovka;smrzovka;50.7382006;15.2464022;CZ
35812;Tanvald;tanvald;50.7375286;15.3078824;CZ
36025;Brno dolní nádraží;brno-dolni-nadrazi;49.183;16.617;CZ
37671;Boskovice;boskovice;49.49160385131836;16.65201950073242;CZ
38133;Kubova Huť;kubova-hut;48.9832325;13.7718236;CZ
38140;Loket u Čechtic;loket-u-cechtic;49.655492;15.1168952;CZ
38162;Vimperk;vimperk;49.0524622;13.7744861;CZ
38166;Čkyně;ckyne;49.1150343;13.829061;CZ
38190;Brtnice;brtnice;49.3069471;15.6764224;CZ
38210;Horni Vltavice;horni-vltavice;48.9570488;13.7586972;CZ
38264;Volyne;volyne;49.1657857;13.886239;CZ
38313;Zašovice;zasovice;49.2582372;15.7256805;CZ
38424;Nove Hrady;nove-hrady;48.779258;14.809565;CZ
38425;Chvalovice;chvalovice;48.754863;16.064613;CZ
38802;Horni Dvoriste;horni-dvoriste;48.601815;14.421978;CZ
38803;As (CZ);as-cz;50.209437;12.199935;CZ
38804;Nyrsko;nyrsko;49.29767;13.153375;CZ
38805;Hojsova Straz;hojsova-straz;49.211751;13.174806;CZ
38806;Kdyne;kdyne;49.383616;13.030754;CZ
38807;Konstantinovy Lazne;konstantinovy-lazne;49.884909;12.975641;CZ
38808;Kynsperk nad Ohri;kynsperk-nad-ohri;50.125568;12.519249;CZ
38809;Praha-Cakovice;praha-cakovice;50.14894;14.519475;CZ
38810;Rohatec;rohatec;48.892733;17.198072;CZ
38811;Sebuzin;sebuzin;50.593052;14.05396;CZ
38812;Valtice;valtice;48.747486;16.743011;CZ
38813;Zajeci;zajeci;48.889659;16.781539;CZ
67620;Červená Voda;cervena-voda;50.031105;16.74736;CZ
67621;Dlouhá Třebová;dlouha-trebova;49.93555;16.4225;CZ
67622;Dolní Dobrouč;dolni-dobrouc;50.00134769;16.46103545;CZ
67623;Libchavy;libchavy;49.98916;16.39694;CZ
67624;Králíky;kraliky;50.08916;16.75388;CZ
67625;Jamné nad Orlicí;jamne-nad-orlici;50.03972;16.6025;CZ
67626;Malá Morava;mala-morava;50.089088565;16.87442411;CZ
67627;Mladkov;mladkov;50.09194;16.62972;CZ
67628;Moravany;moravany;50.00194;15.94638;CZ
67629;Prelouc;prelouc;50.03972;15.57388;CZ
67630;Těchonín;techonin;50.06861;16.60805;CZ
67631;Verměřovice;vermerovice;50.01138;16.5575;CZ
67803;Litomyšl;litomysl;49.86671;16.3112812;CZ
67804;Pec pod Sněžkou;pec-pod-snezkou;50.69482;15.73503971;CZ
67826;Teplice;teplice;50.64213180541992;13.83238220214844;CZ
67921;Plesna (CZ);plesna-cz;50.210947;12.344976;CZ
67945;Nejdek;nejdek;50.319079;12.727467;CZ
67946;Varnsdorf Pivovar Kocour;varnsdorf-pivovar-kocour;50.920124;14.604145;CZ
67987;Brandýs nad Orlicí;brandys-nad-orlici;50;16.28388;CZ
67989;Lipno nad Vltavou;lipno-nad-vltavou;48.6434;14.2198782;CZ
68004;Stara Boleslav;stara-boleslav;50.20960617;14.69212246;CZ
68005;Steti;steti;50.45668793;14.39326191;CZ
68071;Babylon;babylon;49.39888;12.869047;CZ
68072;Bily Kostel nad Nisou;bily-kostel-nad-nisou;50.821189;14.917886;CZ
68073;Bily Kostel nad Nisou Skola;bily-kostel-nad-nisou-skola;50.823481;14.922165;CZ
68074;Bujanov;bujanov;48.702009;14.43237;CZ
68075;Chrastava;chrastava;50.813171;14.952279;CZ
68076;Chrastava-Andelska Hora;chrastava-andelska-hora;50.796783;14.957798;CZ
68083;Holkov;holkov;48.851688;14.447777;CZ
68084;Horni Blatna;horni-blatna;50.388098;12.766516;CZ
68086;Kamenny Ujezd;kamenny-ujezd;48.891178;14.448883;CZ
68087;Kaplice;kaplice;48.775145;14.467652;CZ
68093;Machnin;machnin;50.787426;14.984802;CZ
68094;Machnin hrad;machnin-hrad;50.787893;14.969511;CZ
68095;Majdalena zast;majdalena-zast;48.965006;14.857497;CZ
68098;Mosty u Jablunkova;mosty-u-jablunkova;49.524459;18.751345;CZ
68099;Mosty u Jablunkova z;mosty-u-jablunkova-z;49.50835;18.75112;CZ
68104;Nova Role;nova-role;50.273413;12.780008;CZ
68106;Omlenice;omlenice;48.725201;14.447454;CZ
68107;Pardubice-Cerna za Bory;pardubice-cerna-za-bory;50.027325;15.831091;CZ
68109;Pernink;pernink;50.365301;12.773446;CZ
68113;Praha Sidliste Repy;praha-sidliste-repy;50.065313;14.298466;CZ
68114;Praha Zlicin (M);praha-zlicin-m;50.053546;14.290646;CZ
68115;Praha-Bechovice;praha-bechovice;50.082195;14.59778;CZ
68116;Praha-Bechovice stred;praha-bechovice-stred;50.08366;14.616693;CZ
68117;Praha-Holyne;praha-holyne;50.031586;14.348815;CZ
68118;Praha-Holyne (Tram);praha-holyne-tram;50.027181;14.358236;CZ
68119;Praha-Horni Mecholup;praha-horni-mecholup;50.048135;14.565374;CZ
68120;Praha-Horni Pocernic;praha-horni-pocernic;50.115671;14.613394;CZ
68121;Praha-Klanovice;praha-klanovice;50.08731;14.664013;CZ
68122;Praha-Kolovraty;praha-kolovraty;50.013805;14.625997;CZ
68123;Praha-Reporyje;praha-reporyje;50.03244;14.308238;CZ
68124;Praha-Uhrineves;praha-uhrineves;50.033869;14.591353;CZ
68125;Praha-Zlicin;praha-zlicin;50.06418;14.297765;CZ
68143;Tremosna u Plzne z;tremosna-u-plzne-z;49.803143;13.395356;CZ
68146;Velesin;velesin;48.820001;14.436819;CZ
68147;Velesyn mesto;velesyn-mesto;48.836308;14.45318;CZ
68150;Vyhen;vyhen;48.788548;14.473082;CZ