id;name;uic;lat;lon;country
28699;Banja Luka;banja-luka;44.789256;17.213102;BA
28700;Bihać;bihac;44.818617;15.886502;BA
28701;Bos Krupa;bos-krupa;44.886554;16.150385;BA
28702;Bosanski Novi;bosanski-novi;45.050842;16.386849;BA
28703;Čapljina;capljina;43.1098454;17.6981185;BA
28704;Doboj;doboj;44.8004192;18.0602921;BA
28706;Martin Brod;martin-brod;44.488397;16.135989;BA
28708;Podlugovi;podlugovi;43.969662;18.25454;BA
28710;Prijedor;prijedor;44.978615;16.717191;BA
28711;Tuzla;tuzla;44.535264;18.658331;BA
28712;Zavidovići;zavidovici;44.444187;18.145058;BA
28713;Zenica;zenica;44.2101775;17.9122323;BA
32195;Brčko;brcko;44.8726563;18.8106276;BA
32197;Cerik;cerik;44.816249;18.530346;BA
32199;Derventa;derventa;44.9764185;17.9070412;BA
32211;Kakanj;kakanj;44.128014;18.1178262;BA
32212;Kiseljak;kiseljak;43.9399783;18.0786274;BA
32214;Kozluk;kozluk;44.496926;19.111312;BA
32216;Lončari;loncari;44.94456;18.679627;BA
32219;Maglaj;maglaj;44.5454847;18.1033619;BA
32221;Modriča;modrica;44.9569258;18.3015919;BA
32238;Samac (Bosanski);samac-bosanski;45.0610659;18.4690346;BA
32239;Sarajevo;sarajevo;43.8562586;18.4130763;BA
32244;Srebrenik;srebrenik;44.7074706;18.4918915;BA
32262;Zvornik;zvornik;44.3868886;19.103209;BA
32263;Žepče;zepce;44.428684;18.0379461;BA
32264;Brod;brod;45.1470545023;18.0038484204;BA
32276;Orašje;orasje;45.02779;18.698341;BA
32281;Visoko;visoko;43.9887651;18.1798837;BA
32319;Bugojno;bugojno;44.0646;17.4201;BA
32320;Čitluk;citluk;43.2262492;17.6955277;BA
32321;Donji Vakuf;donji-vakuf;44.148499;17.391171;BA
32322;Gracanica;gracanica;44.69845;18.3175;BA
32323;Jajce;jajce;44.38245;17.235945;BA
32324;Kotor Varou;kotor-varou;44.606251;17.405649;BA
32325;Kupres;kupres;43.9916896;17.2803166;BA
32326;Međugorje;medugorje;43.200913;17.6629672;BA
32327;Mostar;mostar;43.343891;17.80986;BA
32328;Tomislavgrad;tomislavgrad;43.7187433;17.2236492;BA
32573;Donja Tuzla;donja-tuzla;44.535599;18.682751;BA
34074;Neum;neum;42.9256162;17.6157243;BA
34077;Jablanica;jablanica;43.658771;17.762572;BA
34078;Bosanski Petrovac;bosanski-petrovac;44.54960665;16.367572000000003;BA
34084;Bileća;bileca;42.877837;18.426676;BA
34086;Kocerin;kocerin;43.390057;17.484413;BA
34087;Ilijaš;ilijas;43.94584315;18.269165649999998;BA
34088;Gorazde;gorazde;43.667536;18.974652;BA
34089;Ustiprača;ustipraca;43.69076;19.088895;BA
34096;Živinice;zivinice;44.446269;18.649484;BA
34097;Travnik;travnik;44.227761;17.656711;BA
34102;Ključ;kljuc;44.5360015;16.7646192;BA
34103;Nevesinje;nevesinje;43.2579098;18.11480545;BA
34104;Gacko;gacko;43.166338249999995;18.53546980000005;BA
34105;Ljubuški;ljubuski;43.19950582;17.54786968;BA
34106;Konjic;konjic;43.651217700000004;17.95995669999995;BA
34112;Prozor;prozor;43.8150304;17.6143782;BA
34113;Mrkonjic Grad;mrkonjic-grad;44.412743;17.082379;BA
34121;Podgradina;podgradina;43.7162216;16.963196;BA
34122;Raseljke;raseljke;43.627254;16.996007;BA
34129;Bosanska Krupa;bosanska-krupa;44.8841019;16.1541509;BA
34135;Gradiška;gradiska;45.1436764;17.2548647;BA
34136;Suica;suica;43.839233;17.1744513999999;BA
34142;Torlakovac;torlakovac;44.2311854;17.30891225;BA
34144;Vinac;vinac;44.27416185;17.2797601;BA
34146;Posušje;posusje;43.473182;17.326007;BA
34147;Prnjavor;prnjavor;44.8680741;17.6583347000001;BA
34166;Liskovaca;liskovaca;43.636764;16.983597;BA
34167;Krupa na Vrbasu;krupa-na-vrbasu;44.617783;17.14566;BA
34168;Babino Selo;babino-selo;44.215093;17.356537;BA
34171;Nova Topola;nova-topola;45.052605;17.307665;BA
34172;Rekavica;rekavica;44.6916403;17.1333586000001;BA
34173;Lukavac;lukavac;44.533423;18.533684;BA
34189;Hadzici;hadzici;43.82267;18.205326;BA
34192;Visegrad;visegrad;43.788824;19.295709;BA
34193;Srednje;srednje;43.994879;18.426095;BA
34194;Vitina;vitina;43.2435101;17.48433345;BA
34195;Gornji Vakuf - Uskoplje;gornji-vakuf-uskoplje;43.938142;17.587988;BA
34196;Nova Bila;nova-bila;44.1932;17.734397;BA
34197;Mali Guber;mali-guber;43.810505;16.955477;BA
34198;Zabrisce;zabrisce;43.799026;16.939447;BA
34199;Bila;bila;43.7826649;16.9217589;BA
34200;Novi Travnik;novi-travnik;44.169277;17.650194;BA
34220;Bočac;bocac;44.526971;17.17697;BA
34226;Busovača;busovaca;44.0986982;17.8804459;BA
34227;Brestovsko;brestovsko;44.008373;18.027177;BA
34228;Han Ploča;han-ploca;43.899037;18.151124;BA
34229;Ilidža;ilidza;43.832182;18.304208;BA
34232;Donji Brisnik;donji-brisnik;43.6412469;17.2326557;BA
34233;Grude;grude;43.37097585;17.4175792;BA
34234;Sezimovac;sezimovac;43.920913;18.316704;BA
34235;Stupari Selo;stupari-selo;44.31191;18.68399;BA
34236;Olovo;olovo;44.126198;18.579661;BA
34237;Nisici;nisici;44.061433;18.481428;BA
34242;Cazin;cazin;44.965143;15.923639;BA
34243;Velika Kladuša;velika-kladusa;45.1814165;15.8048043;BA
34245;Laktasi;laktasi;44.90811;17.301135;BA
34246;Turbe;turbe;44.2439521;17.581544;BA
34247;Vitez;vitez;44.1583588;17.7882096;BA
34248;Foca;foca;43.503019;18.785054;BA
34251;Kaonik;kaonik;44.129684;17.877035;BA
34255;Livno;livno;43.823549;17.000616;BA
34259;Široki Brijeg;siroki-brijeg;43.381605;17.592017;BA
34260;Trebinje;trebinje;42.707105;18.34173;BA
34262;Kladanj;kladanj;44.225056;18.694329;BA
35130;Orahovac;orahovac;44.586609;18.6832594;BA
35131;Stolac;stolac;43.0829001;17.9524246;BA
35142;Jelah;jelah;44.651437;17.964553;BA
35153;Caparde;caparde;44.3942438;18.9646235;BA
35168;Lasva;lasva;44.133915;17.936654;BA
35193;Papraća;papraca;44.3330057;18.9497686;BA
35204;Bosanska;bosanska;44.2260702;17.6571367;BA
35206;Basići;basici;45.1114069;13.9973553;BA
35218;Karakaj;karakaj;44.4117269;19.1215854;BA
35220;Šepak;sepak;44.5328155;19.1730426;BA
35228;Hrgovi Donji;hrgovi-donji;44.7870034216333;18.5161338960523;BA
35230;Crna Reka;crna-reka;44.413429;17.247841;BA
35245;Srdjevici;srdjevici;43.759813;16.934023;BA
35246;Barevo;barevo;44.4121353355579;17.2456115484238;BA
35277;Podmilačje;podmilacje;44.3673056;17.2990143;BA
35312;Bijeljina;bijeljina;44.7576247;19.2203817;BA
35317;Knespolje;knespolje;43.367169;17.630327;BA
35367;Sekovici;sekovici;44.2958689;18.8495213;BA
35395;Ljubinje;ljubinje;42.9468676819081;18.0938628315926;BA
35569;Hreljići;hreljici;45.0120026;13.9958855;BA
35573;Vranja;vranja;45.3186569;14.1727387;BA
35621;Srbljani;srbljani;44.89782;15.94804;BA
35888;Pale;pale;43.8145944;18.5674595;BA
35983;Novi Grad;novi-grad;45.049329;16.385001;BA
37655;Buna;buna;43.245505;17.848812;BA
38161;Vareš;vares;44.1618902;18.3268323;BA
38188;Breza;breza;44.0181484;18.2612953;BA
