id;name;uic;lat;lon;country
17496;Zagreb;zagreb;45.804453;15.978478;HR
22625;Zagreb Autobusni Kolodvor;zagreb-autobusni-kolodvor;45.803778;15.993229;HR
26836;Zadar Autobusni Kolodvor;zadar-autobusni-kolodvor;44.106298;15.241312;HR
26837;Biograd na Moru Autobusni Kolodvor;biograd-na-moru-autobusni-kolodvor;43.937696;15.444132;HR
26838;Vodice Autobusni Kolodvor;vodice-autobusni-kolodvor;43.759213;15.778478;HR
26839;Šibenik Autobusni Kolodvor;sibenik-autobusni-kolodvor;43.732217;15.893064;HR
26840;Trogir Autobusni Kolodvor;trogir-autobusni-kolodvor;43.518345;16.251995;HR
26841;Split Autobusni Kolodvor;split-autobusni-kolodvor;43.504056;16.442809;HR
26843;Varaždin Autobusni Kolodvor;varazdin-autobusni-kolodvor;46.3042;16.334398;HR
26844;Koprivnica;koprivnica;46.16487;16.817468;HR
26845;Djurdjevac Autobusni Kolodvor;djurdjevac-autobusni-kolodvor;46.03072;17.065283;HR
26846;Virovitica Autobusni Kolodvor;virovitica-autobusni-kolodvor;45.835641;17.387764;HR
26847;Slatina Autobusni Kolodvor;slatina-autobusni-kolodvor;45.706386;17.704483;HR
26848;Donji Miholjac Autobusni Kolodvor;donji-miholjac-autobusni-kolodvor;45.759286;18.16614;HR
26849;Valpovo Autobusni Kolodvor;valpovo-autobusni-kolodvor;45.65743;18.418174;HR
26850;Osijek;osijek;45.553327;18.679953;HR
26851;Djakovo Autobusni Kolodvor;djakovo-autobusni-kolodvor;45.306633;18.416419;HR
26852;Vinkovci Autobusni Kolodvor;vinkovci-autobusni-kolodvor;45.29911;18.802039;HR
26853;Rijeka Autobusni Kolodvor;rijeka-autobusni-kolodvor;45.327996;14.437021;HR
26854;Opatija Autobusni Kolodvor;opatija-autobusni-kolodvor;45.332921;14.302365;HR
26855;Poreč Autobusni Kolodvor;porec-autobusni-kolodvor;45.224458;13.597644;HR
26856;Rovinj Autobusni Kolodvor;rovinj-autobusni-kolodvor;45.080685;13.638815;HR
26857;Pula Autobusni Kolodvor;pula-autobusni-kolodvor;44.876155;13.854958;HR
28224;Ploče;ploce;43.048585;17.433408;HR
28225;Knin;knin;44.036742;16.198256;HR
28226;Sisak;sisak;45.491997;16.373141;HR
28227;Šibenik;sibenik;43.730039;15.898106;HR
28228;Kotoriba;kotoriba;46.353613;16.808461;HR
28229;Opatija-Matulji;opatija-matulji;45.364809;14.321775;HR
28230;Pula;pula;44.879706;13.847199;HR
28231;Rijeka;rijeka;45.330083;14.430248;HR
28232;Split;split;43.504518;16.443212;HR
28233;Zadar;zadar;44.10569;15.242639;HR
28697;Opatija-Matulji;opatija-matulji;;;HR
28698;Pula;pula;44.879588;13.847594;HR
28705;Licka Kaldrma;licka-kaldrma;44.3148486;16.1942609;HR
28707;Ploče;ploce;43.044477;17.446543;HR
29281;Trogir;trogir;43.516387;16.2501894;HR
29282;Vodice;vodice;43.7611122;15.7787599;HR
29283;Biograd;biograd;43.9373047;15.4435586;HR
29286;Đurđevac;durdevac;46.0398758;17.0714503;HR
29287;Virovitica;virovitica;45.8316463;17.3855429;HR
29290;Valpovo;valpovo;45.6590169;18.4155529;HR
29291;Slatina;slatina;45.701932;17.701144;HR
29292;Donji Miholjac;donji-miholjac;45.762142;18.1651379;HR
29293;Rovinj;rovinj;45.0811661;13.6387067;HR
29562;Bale;bale;45.040703;13.783752;HR
29563;Barban;barban;45.0645315;14.0171185;HR
29564;Baška;baska;44.9710827;14.7522269;HR
29565;Bedenica;bedenica;46.0333007;16.2466173;HR
29566;Benkovac;benkovac;44.0334458;15.6111002;HR
29567;Bibinje;bibinje;44.0731738;15.2838313;HR
29568;Bosiljevo;bosiljevo;45.4130941;15.2885483;HR
29569;Brseč;brsec;45.1795231;14.235063;HR
29570;Bršadin;brsadin;45.3614839;18.9109059;HR
29571;Buje;buje;45.4082114;13.6589423;HR
29572;Cres;cres;44.9606942;14.4091703;HR
29573;Crikvenica;crikvenica;45.173583;14.6915049;HR
29574;Delnice;delnice;45.3929244;14.7955136;HR
29575;Dubrovnik;dubrovnik;42.6506606;18.0944238;HR
29576;Dugopolje;dugopolje;43.582096;16.5989117;HR
29577;Funtana;funtana;45.1752258;13.605718;HR
29579;Galižana;galizana;44.9335236;13.8683175;HR
29580;Gornja Vrba;gornja-vrba;45.1538276;18.0637226;HR
29581;Gospić;gospic;44.5469337;15.3750495;HR
29582;Gradište;gradiste;45.1494771;18.7067344;HR
29583;Ičići;icici;45.312713;14.2856284;HR
29584;Jasenice;jasenice;44.23032;15.573896;HR
29585;Jastrebarsko;jastrebarsko;45.6717716;15.6507903;HR
29586;Karlobag;karlobag;44.5284238;15.0728705;HR
29587;Karlovac;karlovac;45.4928973;15.5552683;HR
29588;Klek;klek;42.946776;17.564522;HR
29589;Korenica;korenica;44.743965;15.7066013;HR
29590;Kraljevica;kraljevica;45.2746567;14.571723;HR
29591;Krk;krk;45.0278995;14.5752114;HR
29592;Kutina;kutina;45.4792811;16.7763267;HR
29593;Labin;labin;45.091589;14.1238049;HR
29594;Lovran;lovran;45.2969275;14.2723701;HR
29595;Ludbreg;ludbreg;46.2534684;16.6157314;HR
29596;Makarska;makarska;43.2937769;17.0215239;HR
29597;Mali Lošinj;mali-losinj;44.5315814;14.4720423;HR
29598;Malinska;malinska;45.1250642;14.5288239;HR
29599;Marčana;marcana;44.9565719;13.9551077;HR
29600;Metković;metkovic;43.0532801;17.6493431;HR
29601;Mošćenička Draga;moscenicka-draga;45.2392298;14.2533736;HR
29602;Murter;murter;43.8083553;15.6002024;HR
29603;Nin;nin;44.2423373;15.183695;HR
29604;Nova Gradiška;nova-gradiska;45.2581558;17.3839626;HR
29605;Novi Marof;novi-marof;46.1669272;16.3353346;HR
29606;Novi Vinodolski;novi-vinodolski;45.1285255;14.7897992;HR
29607;Novska;novska;45.33999;16.9785966;HR
29608;Nuštar;nustar;45.3325281;18.8414917;HR
29609;Omiš;omis;43.4433559;16.6929175;HR
29610;Opatija;opatija;45.3376197;14.305196;HR
29611;Opuzen;opuzen;43.0172612;17.5644335;HR
29612;Pazin;pazin;45.2397599;13.9373092;HR
29613;Pirovac;pirovac;43.8205874;15.6678522;HR
29614;Pitomača;pitomaca;45.9501067;17.2326521;HR
29615;Plitvice Lakes (Plitvička Jezera);plitvice-lakes-plitvicka-jezera;44.8807696;15.6210837;HR
29616;Plomin;plomin;45.1376674;14.1801411;HR
29617;Poličnik;policnik;44.1775584;15.3747275;HR
29618;Poreč;porec;45.2271652;13.5947399;HR
29619;Posedarje;posedarje;44.2120433;15.4790862;HR
29620;Primošten;primosten;43.586316;15.9230156;HR
29621;Privlaka;privlaka;44.262375;15.1185858;HR
29622;Punat;punat;45.020739;14.6315962;HR
29623;Ravna Gora;ravna-gora;45.37403;14.937389;HR
29624;Raša;rasa;44.964617;14.1484453;HR
29625;Rogoznica;rogoznica;43.535286;15.966747;HR
29626;Rovanjska;rovanjska;44.2515492;15.5405769;HR
29627;Samobor;samobor;45.8010928;15.7110481;HR
29628;Senj;senj;44.9893604;14.9036052;HR
29629;Skradin;skradin;43.8176375;15.923255;HR
29630;Skradinsko Polje;skradinsko-polje;43.8334943;15.9122938;HR
29631;Slavonski Brod;slavonski-brod;45.163837;18.002985;HR
29632;Stankovci;stankovci;43.9067083;15.6950431;HR
29633;Starigrad;starigrad;44.296009;15.4386463;HR
29634;Sukošan;sukosan;44.0470411;15.3150024;HR
29635;Sveta Nedelja;sveta-nedelja;45.7967384;15.7762862;HR
29636;Sveti Filip i Jakov;sveti-filip-i-jakov;43.9621868;15.4284425;HR
29637;Svetvinčenat;svetvincenat;45.0881811;13.8818032;HR
29638;Tar;tar;45.300369;13.625636;HR
29639;Tisno;tisno;43.7974664;15.6421092;HR
29640;Tribunj;tribunj;43.7569503;15.7475655;HR
29641;Turčin;turcin;46.259273;16.3594061;HR
29642;Udbina;udbina;44.5309868;15.7659518;HR
29643;Umag;umag;45.4372062;13.5257205;HR
29644;Vinkovci;vinkovci;45.2879058;18.8056781;HR
29645;Vir;vir;44.304894;15.07794;HR
29646;Vodnjan;vodnjan;44.961668;13.855971;HR
29647;Vrsar;vrsar;45.1499462;13.6052578;HR
29648;Vukovar;vukovar;45.3452377;19.0010204;HR
29649;Čakovec;cakovec;46.3897383;16.4379653;HR
29650;Žminj;zminj;45.142806;13.9064529;HR
29651;Županja;zupanja;45.072074;18.6945072;HR
32271;Krnica;krnica;44.972778;14.017028;HR
32347;Bjelovar;bjelovar;45.899792;16.838751;HR
32348;Hum na Sutli;hum-na-sutli;46.2138525;15.6903134;HR
32349;Našice;nasice;45.4946861;18.0951118;HR
32350;Otočac;otocac;44.8689344;15.237525;HR
32351;Orahovica;orahovica;45.529585;17.858019;HR
32587;Djakovo;djakovo;45.321548;18.4167;HR
32588;Novi;novi;45.133496;14.81175;HR
32589;Podravska Slatina;podravska-slatina;45.700249;17.71225;HR
32590;Pozega;pozega-stanica;45.336971;17.659605;HR
33364;Beli Manastir;beli-manastir;45.7728664;18.6107524;HR
34081;Rovinjsko Selo;rovinjsko-selo;45.1097863;13.7146768;HR
34083;Slano;slano;42.7877276;17.891711200000003;HR
34085;Perušić;perusic;44.65774685;15.3828021;HR
34090;Luka;luka;45.9596439;15.8198965;HR
34091;Žejinci;zejinci;45.9681507;15.8300213;HR
34092;Tuhelj;tuhelj;46.0774519;15.748697;HR
34094;Pregrada;pregrada;46.15393965;15.7588375;HR
34100;Vrgorac;vrgorac;43.204391;17.373849;HR
34101;Zaostrog;zaostrog;43.1424505;17.281076;HR
34107;Murvica;murvica;44.145646;15.321334;HR
34108;Kozino;kozino;44.171068;15.194326;HR
34109;Petrcane;petrcane;44.19302345;15.17883705000005;HR
34110;Meja;meja;45.29098885;14.58794445;HR
34111;Drage;drage;43.8863;15.5426;HR
34115;Drvenik;drvenik;43.157949;17.2470302;HR
34116;Ston;ston;42.8323285;17.7229448;HR
34117;Cerovac Vukmanićki;cerovac-vukmanicki;45.428962850000005;15.6037286;HR
34118;Brestovac;brestovac;45.33072185;17.59390860000005;HR
34119;Zivogosce;zivogosce;43.184621;17.164079;HR
34120;Gradac;gradac;43.1067375;17.345799;HR
34123;Završje;zavrsje;45.327292;17.62971;HR
34124;Pakostane;pakostane;43.914659;15.509391;HR
34125;Baška Voda;baska-voda;43.356212799999994;16.9559835;HR
34126;Brela;brela;43.372776;16.9298536;HR
34127;Sesvete;sesvete;45.830354;16.109878;HR
34128;Soblinec;soblinec;45.865987;16.154266;HR
34130;Krapina;krapina;46.15946745;15.87269765;HR
34131;Varaždin Breg;varazdin-breg;46.232582;16.385738;HR
34133;Medveja;medveja;45.270862;14.269239;HR
34134;Novigrad;novigrad;45.3191853308869;13.5682815;HR
34137;Most-Rasa;most-rasa;45.0599245;14.0439622;HR
34138;Zaton;zaton;44.219548;15.1777;HR
34140;Zaton Mali;zaton-mali;42.695611;18.045611;HR
34143;Imotski;imotski;43.4460016;17.21868715;HR
34145;Sinj;sinj;43.7003544;16.6442157;HR
34148;Okučani;okucani;45.2409413;17.20826275;HR
34150;Zagorje;zagorje-hr;45.1506;14.2138;HR
34151;Strmac;strmac;45.121821999999995;14.120613500000001;HR
34152;Jadranovo;jadranovo;45.230925600000006;14.621194150000001;HR
34153;Igrane;igrane;43.2006504;17.1367343;HR
34154;Grebastica;grebastica;43.634519;15.965263;HR
34155;Dugi Rat;dugi-rat;43.445347999999996;16.637143000000002;HR
34156;Tučepi;tucepi;43.2671915;17.0567009;HR
34157;Prodol;prodol;44.99946985;13.97239535;HR
34158;Trsteno;trsteno;42.7145158;17.97796855;HR
34159;Orasac;orasac;42.698281;18.012479;HR
34160;Dramalj;dramalj;45.20174125;14.664224149999999;HR
34161;Selce;selce;45.15790925;14.72198675;HR
34163;Slunj;slunj;45.107890049999995;15.587816700000001;HR
34164;Zaton Veliki;zaton-veliki;42.6969;18.0409365;HR
34165;Gračac;gracac;44.295935;15.845201;HR
34170;Vozilici;vozilici;45.156909;14.163416;HR
34174;Ika;ika;45.306777;14.281949;HR
34175;Vrelo Korenicko;vrelo-korenicko;44.76543;15.690749;HR
34176;Obrovac;obrovac;44.20139;15.685071;HR
34177;Maslenica;maslenica;44.226096;15.532396;HR
34178;Smrika;smrika;45.2536218;14.59554076;HR
34179;Gornji Policnik;gornji-policnik;44.187588;15.397443;HR
34180;Sveti Petar na Moru;sveti-petar-na-moru;44.0028025;15.3704725;HR
34181;Turanj;turanj;43.9694;15.4083;HR
34182;Zakorenje;zakorenje;45.336583;17.552045;HR
34183;Bacin Dol;bacin-dol;45.3033924;17.4303001000001;HR
34184;Žaborić;zaboric;43.6629184;15.9442507;HR
34185;Bakar;bakar;45.308747;14.541927;HR
34186;Podorljak;podorljak;43.530325;16.031148;HR
34187;Solin;solin;43.5351275;16.485247;HR
34188;Brist;brist;43.11962;17.322855;HR
34190;Slusnica;slusnica;45.0724609;15.5835889;HR
34191;Koceta;koceta;43.520622;16.058963;HR
34201;Brodarica;brodarica;43.682795;15.91607705;HR
34202;Drniš;drnis;43.85961;16.158748;HR
34203;Pavlovec;pavlovec;46.3876374;16.5478689;HR
34204;Belovar;belovar;45.8819017;16.1719573;HR
34205;Goričica;goricica;45.896848;16.202878;HR
34206;Donja Zelina;donja-zelina;45.910376;16.231874;HR
34207;Blaževdol;blazevdol;45.931176;16.234528;HR
34208;Hrastje;hrastje;45.979966;16.271049;HR
34209;Lužani;luzani;45.1684784;17.6989622;HR
34210;Komin (Zagreb);komin-zagreb;45.9982632;16.2780489;HR
34211;Bisag;bisag;46.033486;16.299375;HR
34212;Breznica;breznica;46.069533;16.271105;HR
34213;Babina Greda;babina-greda;45.1167332;18.5370162;HR
34214;Breznički Hum;breznicki-hum;46.108841;16.283861;HR
34215;Čazma;cazma;45.749311;16.615971;HR
34216;Valentinovo;valentinovo;46.151594;15.792282;HR
34217;Paka;paka;46.128995;16.323782;HR
34218;Zadvarje;zadvarje;43.432467;16.891942;HR
34221;Benkovo;benkovo;46.135226;15.805172;HR
34222;Čret;cret;46.11647105;15.8132804;HR
34223;Kuršanec;kursanec;46.330039;16.400526;HR
34224;Pušćine;puscine;46.3538;16.369272;HR
34225;Nedelišće;nedelisce;46.376277;16.385527;HR
34230;Krapinske Toplice;krapinske-toplice;46.093985;15.83758;HR
34231;Prosika;prosika;43.8453;15.6223;HR
34238;Trilj;trilj;43.619249;16.723283;HR
34239;Velic;velic;43.619199;16.802022;HR
34240;Kupljenovo;kupljenovo;45.931871;15.814824;HR
34241;Borovo;borovo;45.404733;18.979415;HR
34244;Marina;marina;43.51400905;16.10797840000005;HR
34249;Buzet;buzet-stanica;45.4108095;13.9691569;HR
34250;Zagvozd;zagvozd;43.398929;17.051071;HR
34252;Hreljin;hreljin;45.283236;14.600569;HR
34253;Krizisce;krizisce;45.2609612;14.6114756;HR
34254;Loborika;loborika;44.916153;13.905912;HR
34256;Sveti Ivan Zelina;sveti-ivan-zelina;45.959867;16.24353;HR
34258;Bakarac;bakarac;45.279583;14.581181;HR
34261;Opršinac;oprsinac;45.3393427;17.4576498;HR
34267;Fažana;fazana;44.9271263;13.8033885;HR
34269;Zagreb Airport;zagreb-airport;45.741;16.081;HR
34270;Split Airport;split-airport;43.5363;16.2997;HR
34282;Pula Airport;pula-airport;44.8995039886714;13.9233684539795;HR
34671;Kaštela;kastela;43.55;16.383333;HR
34674;Prgomet;prgomet;43.3275;17.1706;HR
34675;Seget Donji;seget-donji;43.5189655;16.2286983;HR
34727;Osijek Airport;osijek-airport;45.4662906;18.8073941;HR
35107;Mala Subotica;mala-subotica;46.3915582;16.528852;HR
35127;Busnovi;busnovi;45.3423507;17.5214272000001;HR
35143;Prelog;prelog;46.3367995;16.6150167;HR
35157;Ilok;ilok;45.2231806;19.36869455;HR
35161;Sveti Juraj u Trnju;sveti-juraj-u-trnju;46.3759841;16.6103299;HR
35162;Donji Mihaljevec;donji-mihaljevec;46.3431011;16.7170194;HR
35163;Jurjevec;jurjevec;46.061866;15.862501;HR
35167;Pojatno;pojatno;45.9117518;15.817328;HR
35186;Gaber;gaber;46.150284;15.686855;HR
35190;Vrtnjakovec;vrtnjakovec;46.076089;15.857642;HR
35232;Medulin;medulin;44.8229057;13.9366199;HR
35235;Šopot;sopot-stanica;44.020876;15.591108;HR
35239;Štefanec;stefanec;46.3915582;16.4931919;HR
35241;Dubravica;dubravica;45.957102;15.732356;HR
35242;Desinić;desinic;46.146936;15.668239;HR
35261;Donji Cerovac;donji-cerovac;45.1526322;15.5594628;HR
35271;Sarengrad;sarengrad;45.233679949999996;19.2811027500001;HR
35278;Rudanovac;rudanovac;44.7827384;15.6828217;HR
35282;Rijeka Airport;rijeka-airport;45.22374295;14.5651466;HR
35287;Bačina;bacina;43.067394;17.425877;HR
35290;Otrić-Seoci;otric-seoci;43.15877;17.45849;HR
35305;Cernik;cernik;45.2830856;17.3802086000001;HR
35307;Rakovica;rakovica;44.99316;15.649691;HR
35308;Tušilović;tusilovic;45.399475;15.616194;HR
35311;Vlaka;vlaka;43.008472;17.5505861;HR
35313;Velika Horvatska;velika-horvatska;46.1001885;15.7300804;HR
35314;Tuheljske Toplice;tuheljske-toplice;46.0636023;15.7778546;HR
35315;Gubaševo;gubasevo;46.0213935;15.8605322;HR
35316;Marinci;marinci;46.1257904;15.7265425;HR
35318;Krnjak;krnjak;45.33462;15.598717;HR
35319;Zadar Airport;zadar-airport;44.0964;15.3531;HR
35321;Gorupić;gorupic;46.0357886;15.8249212;HR
35322;Martinišće;martinisce;46.0438022;15.8578409;HR
35323;Veljun;veljun;45.2516231;15.5538601000001;HR
35324;Opatovac;opatovac;45.2623596;19.1699008000001;HR
35325;Banicevac;banicevac;45.335525;17.467124;HR
35326;Kremena;kremena;42.9778185;17.4957842;HR
35329;Popovača;popovaca;45.5708879;16.6271439;HR
35332;Donji Pustakovec;donji-pustakovec;46.3915582;16.5949287;HR
35333;Cirkovljan;cirkovljan;46.3431011;16.6469988;HR
35334;Draškovec;draskovec;46.3431011;16.6799134;HR
35335;Sveta Marija;sveta-marija;46.3315391;16.7436069;HR
35336;Donji Vidovec;donji-vidovec;46.3294543;16.7856326;HR
35338;Točak;tocak;45.280201;15.552851;HR
35339;Budačka Rijeka;budacka-rijeka;45.290558;15.637039;HR
35340;Martinšće;martinsce;46.028413;15.862958;HR
35342;Štitar;stitar;45.0944306;18.6394299;HR
35343;Velika Kopanica;velika-kopanica;45.1349459;18.4081636;HR
35345;Plocice;plocice;42.5097168;18.2972436;HR
35346;Krvavice;krvavice;43.327814;16.985449;HR
35347;Ivanić Grad;ivanic-grad;45.707331;16.39651;HR
35349;Rabac;rabac;45.0752339;14.1625182;HR
35353;Čehovec;cehovec;46.3608242;16.6188179;HR
35363;Donja Dubrava;donja-dubrava;46.315927;16.810273;HR
35368;Promajna;promajna;43.338015;16.975475;HR
35382;Šestanovac;sestanovac;43.4537962948733;16.9111249672119;HR
35394;Gredice;gredice;46.033391;15.733577;HR
35398;Zaprešić;zapresic;45.85989;15.804836;HR
35401;Stipernica;stipernica;46.13534;15.7210028;HR
35402;Vhri Vinagorski;vhri-vinagorski;46.1574976;15.7101159;HR
35403;Dubrovčan;dubrovcan;46.0525215;15.8009799;HR
35411;Povile;povile;45.1164;14.8199;HR
35412;Bunica;bunica;45.0253;14.8873;HR
35413;Gornji Humac;gornji-humac;43.3012335;16.713648;HR
35414;Oprtalj;oprtalj;45.3888616;13.8953281;HR
35415;Musalež;musalez;45.218496;13.6505683;HR
35416;Kadumi;kadumi;45.218496;13.6505683;HR
35417;Donja Klada;donja-klada;44.8059;14.8977;HR
35418;Karaula;karaula;44.5886;15.0002;HR
35419;Rusnjak;rusnjak;45.3888616;13.8953281;HR
35420;Vrana;vrana;44.8341579;14.4172725;HR
35421;Orlec;orlec;44.8832945;14.4247822;HR
35422;Porozina;porozina;45.1314438;14.2852606;HR
35423;Pag;pag;44.4472472;15.0526542;HR
35424;Daruvar;daruvar;45.58924;17.22541;HR
35425;Petrinja;petrinja;45.43844;16.28554;HR
35426;Belišće;belisce;45.68524845;18.408276100000002;HR
35427;Josipdol;josipdol;45.1892673;15.2850122;HR
35429;Njivice;njivice;45.16396665;14.5435968;HR
35430;Duga Resa;duga-resa;45.4582697;15.49160255;HR
35431;Prizna;prizna;44.62637;14.9707224;HR
35432;Jablanac;jablanac;44.68385;14.935;HR
35433;Sveti Ivan;sveti-ivan;45.09763;14.53598;HR
35434;Stinica;stinica;44.740975;14.903569999999998;HR
35435;Islam Latinski;islam-latinski;44.19515;15.43506;HR
35436;Lokve;lokve;45.35784;14.74928;HR
35437;Tribanj;tribanj;44.35894055;15.29781730000005;HR
35439;Putini;putini;45.1063695;13.7415909;HR
35441;Ivanca;ivanca;44.7768;14.8996;HR
35442;Pinezići;pinezici;45.030596;14.4975037;HR
35443;Gedići;gedici;45.269356;13.661475;HR
35444;Putniković;putnikovic;42.8735794;17.5240803;HR
35445;Janjina;janjina;42.9243772;17.4304591;HR
35446;Žrnovo;zrnovo;42.9442608;17.1098961;HR
35447;Korčula;korcula;42.9529153;17.13535545;HR
35448;Smokvica;smokvica;42.9292925;16.89337;HR
35449;Blato;blato;42.9390777;16.7894855;HR
35450;Vela Luka;vela-luka;42.9569791;16.711288;HR
35451;Donji Humac;donji-humac;43.3414752;16.5592148000001;HR
35452;Nerežišća;nerezisca;43.3309079;16.5721353;HR
35453;Bol;bol;43.260521;16.65441;HR
35454;Rogotin;rogotin;43.0510702;17.4777285;HR
35455;Sveti Juraj;sveti-juraj;44.93357;14.92158475;HR
35456;Kampor;kampor;44.7793979;14.7230221;HR
35457;Vabriga;vabriga;45.2955715;13.622883;HR
35458;Kolan;kolan;44.4917103;14.9628463;HR
35459;Primošten Burnji;primosten-burnji;43.62257905;15.920321699999949;HR
35460;Klenovica;klenovica;45.1118029;14.8496499;HR
35461;Orebić;orebic;42.9739484;17.1765291;HR
35462;Seget Poljica;seget-poljica;43.5194268;16.1292778;HR
35463;Seget Vranjica;seget-vranjica;43.5142131;16.1876715;HR
35464;Pražnica;praznica;43.318727;16.6991256;HR
35465;Pučišća;pucisca;43.3482327;16.7322025999999;HR
35466;Postira;postira;43.37485220000001;16.628101;HR
35467;Materada;materada;45.4036986;13.6059083;HR
35468;Bogovići;bogovici;45.1175517;14.5268402;HR
35469;Tounj;tounj;45.249612;15.3358643;HR
35470;Đuba;duba;45.4085255;13.5324805;HR
35471;Petrovija;petrovija;45.4245618;13.5671151;HR
35472;Istria;istria;45.212523;13.7439181;HR
35473;Kruncici;kruncici;45.1483001;13.7364477;HR
35474;Omisalj;omisalj;45.1989;14.5608;HR
35475;Mokosica;mokosica;42.675;18.0933;HR
35476;Sveti Vid;sveti-vid;45.1276;14.5428;HR
35477;Jurandvor;jurandvor;44.9784;14.7339;HR
35478;Dobrinj;dobrinj;45.1282;14.606;HR
35479;Modruš;modrus;45.1351621;15.2542516999999;HR
35480;Stari Grad;stari-grad;44.7967;14.9014;HR
35481;Smokvica Krmpotska;smokvica-krmpotska;45.0968;14.8503;HR
35482;Nenadići;nenadici;45.0767318;14.4945312;HR
35483;Lopar;lopar;44.8346118;14.7261909;HR
35484;Gajac;gajac;44.5336087;14.8983231;HR
35485;Zečevo Rogozničko;zecevo-rogoznicko;43.5527259;15.9598248;HR
35486;Podglavica;podglavica;43.5399654;15.9916516000001;HR
35487;Svinca;svinca;43.5235304;16.0520473;HR
35488;Podgora;podgora;43.2398;17.0782;HR
35489;Sovinjak;sovinjak;45.3875696;13.9270669;HR
35490;Roč;roc;45.3967278;14.0321766;HR
35491;Generalski Stol;generalski-stol;45.3479117;15.3748986;HR
35492;Brtonigla;brtonigla;45.3807248;13.626652;HR
35493;Čelina;celina;43.4093466;16.7487138;HR
35494;Križine;krizine;45.3978497;13.5408625;HR
35495;Ljubač;ljubac;44.2606726;15.2950809;HR
35496;Dinjiška;dinjiska;44.3603047;15.1853774;HR
35497;Vrčići;vrcici;44.3751704;15.1557076;HR
35498;Brušane;brusane;44.5019548;15.266837;HR
35499;Žigljen;zigljen;44.5783677;14.9474339999999;HR
35500;Beram;beram;45.24768845;13.88531344999995;HR
35501;Prezid;prezid;45.6401116;14.5738922;HR
35502;Kamenjak;kamenjak;45.3841213;14.5458497;HR
35503;Lupoglav;lupoglav;45.3531718;14.1067017;HR
35504;Gornje Jelenje;gornje-jelenje;45.3655435;14.6183017;HR
35505;Sopač;sopac;45.3637098;14.7676461;HR
35506;Ćunski;cunski;44.5891922;14.409346;HR
35507;Nerezine;nerezine;44.6601183;14.3963805999999;HR
35508;Osor;osor;44.6936634;14.3952389;HR
35509;Belej;belej;44.7771217;14.4239658;HR
35510;Loznati;loznati;44.919853;14.4272346;HR
35511;Predoščica;predoscica;45.0319506;14.3784809;HR
35512;Bijele Zemlje;bijele-zemlje;45.3588514;13.7385830000001;HR
35513;Krasica;krasica;45.3822109;13.6911955000001;HR
35514;Motovun;motovun;45.3304841;13.8242726;HR
35515;Vratnik;vratnik;44.9814188;14.9796683;HR
35516;Žuta Lokva;zuta-lokva;44.9681577;15.0613268;HR
35517;Ogulin;ogulin;45.2656139;15.2311081;HR
35518;Novalja;novalja;44.5471531;14.8928972;HR
35519;Povljana;povljana;44.3466406;15.1135251000001;HR
35520;Matulji;matulji;45.3599136;14.329491449999999;HR
35521;Kršete;krsete;45.4023743;13.6146909;HR
35522;Juricani;juricani;45.4054776;13.5942077;HR
35524;Banjol;banjol;44.75366;14.77876;HR
35525;Bašerinka;baserinka;45.26706;13.62303;HR
35526;Brajkovići;brajkovici;45.11;13.7677;HR
35528;Brestova;brestova;45.1446699;14.2232774;HR
35529;Špadići;spadici;45.2409947;13.5997029;HR
35530;Kanfanar;kanfanar;45.12021665;13.8376228;HR
35531;Grabovac;grabovac;44.9754243;15.6489251;HR
35532;Tinjan;tinjan;45.22643735;13.83883475000005;HR
35533;Lučice;lucice;45.3810864;14.7928426999999;HR
35534;Lovrec;lovrec;45.176802;13.7421942;HR
35535;Belavići;belavici;45.4255309;15.4846076;HR
35536;Zvečaj;zvecaj;45.3881417;15.4254158;HR
35537;Donje Dubrave;donje-dubrave;45.304233;15.3612666;HR
35538;Draga Bascanska;draga-bascanska;45.0031;14.7059;HR
35539;Merag;merag;44.9803795;14.4556327;HR
35540;Vrbovsko;vrbovsko;45.3733168;15.0764756999999;HR
35541;Čabar;cabar;45.5960898;14.6463151;HR
35542;Sveti Jakov;sveti-jakov;44.6390741;14.3910383;HR
35543;Jezerane;jezerane;45.06607225;15.20996924999995;HR
35544;Brinje;brinje;44.9990912;15.1302253;HR
35545;Lovrecica;lovrecica;45.3827208;13.5378456;HR
35546;Barbat;barbat;44.716625;14.83781825;HR
35547;Rab;rab;44.7609535;14.7600973999999;HR
35548;Seline;seline;44.2838;15.4619;HR
35549;Pupnat;pupnat;42.9485919;17.035986;HR
35550;Čara;cara;42.935697;16.9352004;HR
35551;Krčina;krcina;44.9131423;14.4178737;HR
35552;Čibača;cibaca;42.6274814;18.1675219;HR
35553;Doli;doli;42.8142925;17.7824561;HR
35554;Antenal;antenal;45.3156844;13.5915149;HR
35555;Supetar;supetar;43.3841008;16.5567771;HR
35556;Jakovici;jakovici;45.2113289;13.8093238;HR
35557;Cerovlje;cerovlje;45.2749137;14.0114599;HR
35559;Vižinada;vizinada;45.3297304;13.7576274000001;HR
35560;Rocko Polje;rocko-polje;45.372166;14.0807991;HR
35561;Podravski Podgajci;podravski-podgajci;45.7322;18.2637;HR
35562;Sveti Durad;sveti-durad;45.7395;18.2448;HR
35563;Potomje;potomje;42.9415741;17.335327;HR
35564;Šimuni;simuni;44.4702535;14.9617598;HR
35565;Sumartin;sumartin;43.2854645;16.8705345999999;HR
35566;Pavlovac;pavlovac;44.5075128;15.5458747;HR
35567;Milna;milna;43.3269982;16.4483683999999;HR
35568;Sošići;sosici;45.1151392;13.7519393;HR
35570;Cestarska Kuca;cestarska-kuca;45.007;13.8116;HR
35571;Kornic;kornic;45.0393;14.6191;HR
35572;Miškovići;miskovici;44.3378533;15.227981;HR
35574;Komin;komin;43.043401;17.5285186999999;HR
35575;Červar-porat;cervar-porat;45.2737374;13.6003725000001;HR
35576;Kaštelir;kastelir;45.3005231;13.6865634000001;HR
35577;Vrvari;vrvari;45.2222683;13.6348829;HR
35578;Ciritez;ciritez;45.4002114;14.0247997;HR
35579;Crni Lug;crni-lug;45.4199243;14.7059471;HR
35580;Veli Losinj;veli-losinj;44.5176488;14.5038011;HR
35581;Melnice;melnice;44.9684085;15.0139692;HR
35582;Ustrine;ustrine;44.7447511;14.4047780999999;HR
35583;Vrbnik;vrbnik;45.0596324;14.6682164;HR
35584;Bribir;bribir;45.1619519;14.7608629;HR
35585;Senjska Draga;senjska-draga;44.9814188;14.9796683;HR
35586;Kvarte;kvarte;44.6778186;15.3830749;HR
35588;Črnkovci;crnkovci;45.7071;18.296;HR
35589;Hreljin Ogulinski;hreljin-ogulinski;45.2952;15.1796;HR
35590;Cesarica;cesarica;44.5629;15.0254;HR
35591;Lukovo Sugarje;lukovo-sugarje;44.4404;15.1912;HR
35592;Baric Draga;baric-draga;44.3766;15.2679;HR
35593;Lumbarda;lumbarda;42.926494;17.1686254;HR
35594;Boljenovići;boljenovici;42.8482486;17.6257476000001;HR
35595;Dominče;domince;42.9513147;17.1451412;HR
35596;Škrbčići;skrbcici;45.0487122;14.4931286;HR
35597;Fužine;fuzine;45.3051747;14.7135413999999;HR
35598;Martinšćica;martinscica;44.8193608;14.3505825;HR
35599;Sveti Anton;sveti-anton;45.1044;14.5251;HR
35600;Mimice;mimice;43.4058916;16.8082452;HR
35601;Duba Stonska;duba-stonska;42.874194;17.6426521;HR
35602;Vela Traba;vela-traba;45.2406912;13.8557416;HR
35603;Gerovo;gerovo;45.515414;14.6410072;HR
35604;Dragozetići;dragozetici;45.0977036;14.3086843999999;HR
35605;Istarske Toplice;istarske-toplice;45.3774333;13.8835703;HR
35606;Livade;livade;45.3547742;13.8292143;HR
35607;Šapjane;sapjane;45.4828;14.2492;HR
35608;Sibuljine;sibuljine;44.3374;15.3428;HR
35609;Šilo;silo;45.1468;14.6638;HR
35610;Bajcici;bajcici;45.0779;14.4998;HR
35611;Covici;covici;44.82787;15.30027;HR
35612;Lukovo;lukovo;44.8479;14.909;HR
35614;Punitovci;punitovci;45.43281;18.41142;HR
35615;Gorica;gorica;44.39673;15.1182;HR
35616;Pakrac;pakrac;45.43707;17.18922;HR
35617;Seget;seget;45.40812;13.54308;HR
35618;Stara Vas;stara-vas;44.37468;15.15661;HR
35619;Trstenik;trstenik-stanica;42.91786;17.41084;HR
35622;Kula Norinska;kula-norinska;43.0303;17.60696;HR
35624;Sutivan;sutivan;43.38409;16.47948;HR
35627;Donji Andrijevci;donji-andrijevci;45.187619;18.296836;HR
35628;Nova Vas;nova-vas;45.347083;13.618652;HR
35629;Bukovlje;bukovlje;45.18496;18.07017;HR
35630;Lipik;lipik;45.41461;17.16101;HR
35631;Široko Polje;siroko-polje;45.405187;18.466279;HR
35632;Vuka;vuka;45.437001;18.505961;HR
35633;Glina;glina;45.340521;16.08807;HR
35634;Vranovci;vranovci;45.182787;18.082008;HR
35635;Trnjani;trnjani;45.188512;18.135687;HR
35636;Garčin;garcin;45.18251;18.179896;HR
35637;Topolje;topolje;45.864899;18.729911;HR
35638;Tomašanci;tomasanci;45.386466;18.414555;HR
35639;Beketinci;beketinci;45.455155;18.478047;HR
35640;Sikirevci;sikirevci;45.106323;18.46683;HR
35641;Cista Provo;cista-provo;43.507948;16.943144;HR
35642;Vrpolje;vrpolje;45.209402;18.406436;HR
35643;Čajkovci;cajkovci;45.19558;18.372979;HR
35656;Poljica;poljica;44.21126;15.29216;HR
35657;Viskovci;viskovci;45.3432212;18.4557723;HR
35659;Čepin;cepin;45.523806;18.577289;HR
35667;Kuševac;kusevac;45.348714;18.422706;HR
35710;Murvica Gornja;murvica-gornja;44.15966;15.344562;HR
35714;Polača;polaca;44.0173433;15.5183559;HR
35833;Dubrave;dubrave;45.103772;15.6789404999999;HR
35845;Ražanac;razanac;44.2722321;15.3385952999999;HR
35846;Miletići;miletici;44.3108789;15.2767997999999;HR
35847;Deringaj;deringaj;44.3492479;15.8651034;HR
35848;Bruvno;bruvno;44.40111;15.89583;HR
35849;Dubrovnik Airport;dubrovnik-airport;42.56008;18.261;HR
35858;Donja Banda;donja-banda;42.9739068;17.2366411;HR
35859;Broćanac;brocanac;45.0637893;15.607749;HR
35860;Vrbovec;vrbovec;45.8857588874548;16.4130055904388;HR
35902;Vaganac;vaganac;44.6457534;15.2591475;HR
35930;Blagaj;blagaj;45.2136187;15.5442931;HR
35936;Drežnik Grad;dreznik-grad;44.940341;15.6795930000001;HR
35937;Taborište;taboriste;45.406678;16.2995657;HR
35949;Kapela;kapela;45.9879008;16.8516064;HR
35951;Prijeboj;prijeboj;44.8418386;15.673806;HR
35956;Gornji Nikšić;gornji-niksic;45.1441307;15.5586316;HR
35957;Selište Drežničko;seliste-dreznicko;44.9413133;15.6315479;HR
35967;Eminovci;eminovci;45.3562388;17.7291113;HR
35968;Lipovlje;lipovlje;44.8212036;15.2148514;HR
35970;Ličko Petrovo Selo;licko-petrovo-selo;44.8816072;15.7241958;HR
35971;Zečev Varoš;zecev-varos;45.1452713;15.5331053;HR
35981;Klapavica;klapavica;44.44319;15.85171;HR
36003;Cerovac;cerovac;45.36433;17.81082;HR
36008;Jošan;josan;44.5744385;15.750609;HR
36009;Muškovci;muskovci;44.220781;15.7188072;HR
36010;Ondić;ondic;44.4809968;15.7792012;HR
36011;Pećane;pecane;44.6427372;15.7207393;HR
36012;Druškovec;druskovec;46.25157;16.15026;HR
37606;Jezerce;jezerce;44.86127789999999;15.64374395000004;HR
38029;Poreč (Kutjevo);porec-kutjevo;45.367298;17.92795;HR
38135;Lekenik;lekenik;45.5853414;16.2100771;HR
38174;Baske Ostarije;baske-ostarije;44.5263214;15.1743771;HR
38175;Berinovac;berinovac;43.439343;17.105221;HR
38179;Biorine;biorine;43.5521066;16.8272581;HR
38191;Budimiri;budimiri;43.5695793;16.8170683;HR
38200;Cista Velika;cista-velika;43.5428306;16.8651024;HR
38208;Grubine;grubine;43.4342538;17.1624899;HR
38212;Kljenovac;kljenovac;43.457079;17.066529;HR
38217;Krivodol;krivodol;43.4362882;17.1229218;HR
38221;Ljuba;ljuba;43.490159;17.099923;HR
38224;Modric;modric;46.4099291;15.4706179;HR
38226;Mrnjavci;mrnjavci;43.491599;17.006306;HR
38234;Pisak;pisak;43.3997413;16.8618794;HR
38235;Podostra;podostra;44.5268541;15.3327786;HR
38236;Podstrana;podstrana;43.4858487;16.5493816;HR
38240;Prolozac;prolozac;43.4847925;17.1366365;HR
38249;Sotin;sotin;45.2961258;19.0966;HR
38250;Spar;spar;43.488349;17.10472;HR
38251;Stobrec;stobrec;43.5039342;16.5237792;HR
38252;Studenci;studenci;43.527842;17.028688;HR
38253;Susanj Cesaricki;susanj-cesaricki;44.5254797;15.1267758;HR
38260;Turjaci;turjaci;43.6492007;16.6690252;HR
38261;Ugljane;ugljane;43.5725843;16.7604598;HR
38275;Brela Gornja;brela-gornja;43.4088284;16.9139651;HR
38276;Briševo;brisevo;44.1628882;15.3054558;HR
38277;Brnaze;brnaze;43.677427;16.6565678;HR
38278;Caporice;caporice;43.5955543;16.7308745;HR
38282;Dubci;dubci;43.402547;16.891571;HR
38284;Glavina Donja;glavina-donja;43.4445779;17.1961874;HR
38285;Gornji Kneginec;gornji-kneginec;46.2507577;16.375517;HR
38287;Kamenmost;kamenmost;43.4249522;17.1859573;HR
38288;Kaniža Gospićka;kaniza-gospicka;44.540587;15.3497381;HR
38289;Klis;klis;43.5601784;16.5207648;HR
38291;Krneza;krneza;44.2430601;15.3130049;HR
38294;Miočići;miocici;44.293679;15.3047277;HR
38295;Mohovo;mohovo;45.2490369;19.2166728;HR
38296;Novoselo Trnovačko;novoselo-trnovacko;44.5180501;15.3080462;HR
38298;Podvršje;podvrsje;44.2581413;15.3255778;HR
38299;Potpoletnica;potpoletnica;43.418317;16.901648;HR
38300;Prpusa;prpusa;43.4797;16.930674;HR
38301;Ribarica;ribarica;44.5542663;15.0367948;HR
38303;Rtina;rtina;44.293679;15.3047277;HR
38304;Ruskamen;ruskamen;43.4156861;16.7680459;HR
38305;Sabunike;sabunike;44.2583928;15.1614042;HR
38309;Velika Gorica;velika-gorica;45.7142122;16.0752431;HR
38310;Vidovac Cesarički;vidovac-cesaricki;44.5265201;15.0914661;HR
38312;Vlašići;vlasici;44.3255932;15.2070907;HR
38314;Zemunik Donji;zemunik-donji;44.1058067;15.3793184;HR
38322;Debelo Brdo;debelo-brdo;44.6592;15.6878;HR
38326;Piskorevci;piskorevci;45.25552;18.39921;HR
38385;Hrasta;hrasta;44.8171;14.4152;HR
38548;Srem;srem-hr;44.75171;14.42318;HR
38551;Zaton Doli;zaton-doli;42.8634;17.703;HR
38572;Beli;beli;45.1117;14.3545;HR
38675;Slivno Ravno;slivno-ravno;42.971089;17.518039;HR
38676;Dubrava;dubrava;45.838013;16.538333;HR
38677;Vrhi Pregradski;vrhi-pregradski;46.174982;15.752961;HR
38974;Banova Jaruga;banova-jaruga;45.445936;16.87651;HR
38975;Perkovic;perkovic;43.675664;16.11773;HR
38976;Dugo Selo;dugo-selo;45.801442;16.235381;HR
38977;Krizevci;krizevci;46.00645;16.543217;HR
38978;Vrhovi-Plitvi Jezera;vrhovi-plitvi-jezera;44.848855;15.428096;HR
38979;Moravice;moravice;45.42287;15.01666;HR
38980;Nova Kapela;nova-kapela;45.189771;17.650409;HR
38981;Savski Marof;savski-marof;45.871863;15.740516;HR
38982;Oriovac;oriovac;45.160897;17.755178;HR
38983;Stari Mikanovci;stari-mikanovci;45.268256;18.548863;HR
38984;Ivankovo;ivankovo;45.27844;18.66619;HR
38985;Kamanje;kamanje;45.645182;15.407672;HR
38986;Mursko Sredisce;mursko-sredisce;46.508857;16.446178;HR
38987;Bedekovcina;bedekovcina;46.041849;15.998587;HR
38988;Budinscina;budinscina;46.128361;16.213906;HR
38989;Cerna;cerna;45.194184;18.698902;HR
38990;Ceminac;ceminac;45.685562;18.655448;HR
38991;Darda;darda;45.634054;18.6991;HR
38992;Djulovac;djulovac;45.664374;17.431234;HR
38993;Gomirje;gomirje;45.342686;15.12862;HR
38994;Hrvatski Leskovac;hrvatski-leskovac;45.744432;15.891966;HR
38995;Klostar;klostar;45.98128;17.139534;HR
38996;Konjscina;konjscina;46.050641;16.178902;HR
38997;Kosovo;kosovo;43.949754;16.209582;HR
38998;Labin Dalmatinski;labin-dalmatinski;43.583938;16.232864;HR
38999;Lepavina;lepavina;46.097681;16.685426;HR
39000;Licko Lesce;licko-lesce;44.773687;15.358357;HR
39001;Lipovljani;lipovljani;45.386904;16.882416;HR
39002;Lovinac;lovinac;44.376238;15.664108;HR
39003;Mahicno;mahicno;45.548737;15.536937;HR
39004;Maslenjaca;maslenjaca;45.64262;17.29609;HR
39005;Mucna Reka;mucna-reka;46.124865;16.763677;HR
39006;Novoselec;novoselec;45.649156;16.5302;HR
39007;Ozalj;ozalj;45.612066;15.482705;HR
39008;Plaski;plaski;45.078385;15.368084;HR
39009;Pleternica;pleternica;45.287016;17.809815;HR
39010;Sibinj;sibinj;45.18106;17.904687;HR
39011;Skrad;skrad;45.424515;14.903144;HR
39012;Staro Petrovo Selo;staro-petrovo-selo;45.22197;17.527284;HR
39013;Sveti Ivan Zabno;sveti-ivan-zabno;45.945233;16.621099;HR
39014;Unesic;unesic;43.741905;16.181446;HR
39015;Velika;velika;45.438907;17.665718;HR
39016;Virje;virje;46.069716;17.002799;HR
39017;Vladislavci;vladislavci;45.475556;18.558535;HR
39018;Vrbanja;vrbanja;44.983522;18.885707;HR
39019;Zdencina;zdencina;45.683692;15.749757;HR
39020;Zlatar Bistrica;zlatar-bistrica;46.044043;16.082079;HR
39021;Bregi;bregi;46.126654;16.891872;HR
39022;Gabos;gabos;45.354426;18.74338;HR
39023;Laslovo-Korod;laslovo-korod;45.415004;18.706875;HR
67316;Zagreb Glavni kolodvor;zagreb-glavni-kolodvor;45.804438;15.978705;HR
67317;Split Predgrade;split-predgrade;43.521968;16.455662;HR
67603;Ivandol;ivandol;45.342175;17.50931390000005;HR
67610;Križic;krizic;45.76762;16.7817;HR
67646;Jakšić;jaksic;45.35783;17.76374;HR
67647;Dalj;dalj;45.48634;18.98373;HR
67648;Aljmaš;aljmas;45.52911;18.9497;HR
67649;Novo Selo;novo-selo;45.320386;17.633938;HR
67650;Bizovac;bizovac;45.587334999999996;18.45637;HR
67651;Gučani;gucani;45.33933;17.53721;HR
67652;Kutjevo;kutjevo;45.4231;17.88177;HR
67653;Ruševo;rusevo;45.30908;17.99333;HR
67831;Bektez;bektez;45.39779;17.9268;HR
67832;Rajsavac;rajsavac;45.36309;17.79398;HR
67833;Koška;koska;45.54506;18.28595;HR
67834;Daranovci;daranovci;45.33422;17.57662;HR
67835;Povlja;povlja;43.3324;16.8363;HR
67836;Splitska;splitska;43.3738;16.6047;HR
67837;Selca;selca;43.2959;16.8484;HR
67838;Bilje;bilje;45.60424;18.74473;HR
67839;Ladimirevci;ladimirevci;45.62781;18.43944;HR
67840;Batina;batina;45.85197;18.85297;HR
67982;Bilice;bilice;45.23652;17.84036;HR
67988;Doljanovci;doljanovci;45.44595;17.74511;HR
68000;Kaptol;kaptol;45.43208;17.72334;HR
68001;Milanlug;milanlug;45.36819;17.97452;HR
68002;Lastovo;lastovo;42.76872;16.89648;HR
68022;Feričanci;fericanci;45.52379;17.97906;HR
68023;Višnjevac;visnjevac;45.56516506;18.62670809;HR
68024;Petrijevci;petrijevci;45.6070881;18.53215494;HR
68025;Erdut;erdut;45.52666846;19.03118312;HR
68026;Ernestinovo;ernestinovo;45.44232;18.66731;HR
68027;Podgorač;podgorac;45.45539905;18.2218757;HR
68028;Slavonski Šamac;slavonski-samac;45.0664;18.48329;HR
68029;Podravska Moslavina;podravska-moslavina;45.78493372;17.98141696;HR
68030;Vukojevci;vukojevci;45.47852823;18.15119866;HR
68031;Semeljci;semeljci;45.36024131;18.54111128;HR
68032;Veliškovci;veliskovci;45.69904642;18.3231018;HR
68033;Čaglin;caglin;45.34985;17.98791;HR
68034;Dervisaga;dervisaga;45.3298;17.73134;HR
68035;Zmajevac;zmajevac;45.80122523;18.808325;HR
68036;Satnica;satnica;45.61475;18.48963;HR
68037;Ubli;ubli;42.74622506;16.82492894;HR
68042;Kneževi Vinogradi;knezevi-vinogradi;45.74976;18.73308;HR
68043;Blacko;blacko;45.31712;17.77459;HR
68108;Pcelic;pcelic;45.780335;17.525531;HR
68136;Sirac;sirac;45.529878;17.241085;HR
68190;Ostarije;ostarije;45.234444;15.296389;HR
